name,latitude,longitude,amenity,highway,
B. D. Kher Chowk,18.4784371,73.8240279,,traffic_signals,
Kunte Chowk,18.5144753,73.8523177,,traffic_signals,
Belbag Chowk,18.5156694,73.8562866,,traffic_signals,
Cavalry Line,18.5390186,73.9037093,,traffic_signals,
Magar Petrol Pump,18.5152532,73.9330133,fuel,,
Buddha-Hall,18.537239,73.8867527,place_of_worship,,
Wakad Chowk,18.5923513,73.7628419,,traffic_signals,
Bhakti_Shakti_Chowk,18.6637916,73.7724518,metroStation,,
Reliance Fresh,18.5480228,73.920474,,,
McDonald's,18.5457237,73.9062599,fast_food,,
The Charcoal Pit,18.5167868,73.8791405,restaurant,,
The Great Punjab,18.5364098,73.8973015,restaurant,,
Shisha Jazz Cafe,18.5391279,73.9049627,cafe,,
Roshini Petrol Pump,18.539254,73.885693,fuel,,
German Bakery,18.5396234,73.8873711,cafe,,
Talegaon,18.7148474,73.6439753,,motorway_junction,
Anand Thali,18.5009808,73.9448522,restaurant,,
Sangam World Centre,18.5599096,73.8757807,,,
E-Square Multiplex,18.5378515,73.8355739,cinema,,
Hard Rock Cafe,18.5387955,73.912781,restaurant,,
Stone Water Grill,18.5383533,73.9126684,restaurant,,
Nisarg,18.5067094,73.8321992,restaurant,,
Sun N Sand,18.5382482,73.8815099,,,
Le Pizzeria,18.5396305,73.8833529,restaurant,,
Nigdi,18.6581743,73.7658538,metroStation,,
Sriman,18.5395872,73.8831852,,,
Asia Kitchen,18.538908,73.8752478,restaurant,,
Sirona,18.5394081,73.8830135,,,
Crossword,18.530856,73.8753054,,,
Mukul Petrol Pump,18.53956,73.885683,fuel,,
High Spirits,18.5393901,73.9052966,bar,,
Thai House,18.5690389,73.8321526,restaurant,,
Ambedkar Chowk,18.5626197,73.8302166,,motorway_junction,
Yummy Tummy,18.5124118,73.9284574,restaurant,,
Megamart Shop,18.5459611,73.9045987,,,
Crossword Bookstore,18.5455421,73.9064671,,,
Pushkar Sweets,18.5457564,73.9056346,,,
Karachi Sweets,18.5457846,73.9055037,,,
Fame,18.5062657,73.901405,cinema,,
Seasonal Tastes,18.5391023,73.9061842,restaurant,,
Mix@36,18.5397983,73.9060086,bar,,
Vimannagar Ganesh Temple,18.5677772,73.9183559,place_of_worship,,
Hind Mutton Shop,18.4979149,73.9417237,,,
Akurdi,18.6462156,73.7571456,metroStation,,
Hairdresser,18.4979789,73.9416569,,,
Amir Chicken Shop,18.4986595,73.9408485,,,
Aroma's,18.5387882,73.9052035,cafe,,
Renault Fatimanagar,18.5060978,73.9014122,,,
Haka,18.5062169,73.9013284,restaurant,,
Cafe Coffee Day,18.5395824,73.8870419,cafe,,
Bank of Baroda,18.5659084,73.7715441,bank,,
Thousand Oaks,18.5104212,73.8799164,restaurant,,
East Street Cafe,18.5199422,73.8804464,restaurant,,
Pune Cantonment Fire Station,18.4985647,73.8843225,fire_station,,
Kareem's,18.5140857,73.8796502,restaurant,,
Chinchwad,18.6298378,73.7686278,metroStation,,
Victory Cinema,18.5145465,73.8794763,cinema,,
Marz-O-Rin,18.5165106,73.8790851,cafe,,
Aurora Towers,18.5181549,73.878853,,,
West End,18.5185312,73.8779625,cinema,,
Kwality,18.5150767,73.8799074,restaurant,,
Sheetal Arch,18.5124763,73.880839,restaurant,,
Sardar Patel Cantonment General Hospital,18.5027163,73.87712,hospital,,
Appa Balwant Chowk,18.5164569,73.8538574,,traffic_signals,
Hutatma Chowk,18.516866,73.8562542,,traffic_signals,
Sigree,18.5395737,73.8750368,restaurant,,
Pune General Post Office,18.5229317,73.8756503,post_office,,
Inox,18.5268449,73.8778583,cinema,,
Flags,18.5272989,73.877989,restaurant,,
Coffee House,18.5187719,73.8772441,cafe,,
Ram Krishna,18.5191213,73.8785611,restaurant,,
Starbucks,18.5392674,73.8866937,cafe,,
Gurudwara,18.5126006,73.8857872,place_of_worship,,
Ganpati Chowk,18.5150076,73.8549798,,crossing,
Raviraj,18.5178872,73.8363021,,,
Dr. Babasaheb Ambedkar Cantonment General Hospital,18.569025,73.8486994,hospital,,
Kedari Petrol Pump,18.4865476,73.8986607,fuel,,
Trinco,18.5265172,73.8872945,restaurant,,
Cafe Code Red,18.5262952,73.8871613,cafe,,
Pune Railway Station Bus Terminus,18.5278721,73.872255,bus_station,,
Command Hospital Southern Command,18.5005828,73.8894328,hospital,,
Shanipar Chowk,18.5133364,73.8538452,,traffic_signals,
Sambhaji Police Chowki,18.5131785,73.8438921,police,,
Prego,18.5393141,73.9061183,restaurant,,
Kangan,18.5399703,73.9061077,restaurant,,
Shiv Darshan Chowk,18.4925128,73.8541317,,traffic_signals,
Rajwada,18.5494,73.8042565,restaurant,,
Up and Above,18.5064267,73.7839701,restaurant,,
Symbiosis Nursery School,18.533081,73.8377434,school,,
Monginis,18.5300262,73.8366561,,,
STPI,18.589553,73.7335836,office,,
Gold Coast Visitor Parking,18.5517641,73.8012027,parking,,
Ishwar Medical,18.5538796,73.8050612,pharmacy,,
Chitale,18.5575921,73.8055225,,,
Croma,18.5536864,73.80681,,,
Kekan Petrol Pump (HP),18.5751028,73.8970804,fuel,,
Indian Oil,18.5736645,73.8849523,fuel,,
Grubshup,18.5108517,73.8298928,cafe,,
Kalyan Bhel,18.5118996,73.8302361,fast_food,,
Kekan Gas Agency,18.5747728,73.8952354,gas cylinder BP,,
Sassoon Hospital,18.5251434,73.8695664,hospital,,
BJ Medical College,18.5268345,73.8719155,college,,
Blue Nile,18.5217526,73.8774667,restaurant,,
George,18.5173226,73.8794126,restaurant,,
Sagar Plaza,18.5201845,73.8766107,,,
Kayani Bakery,18.514857,73.8800072,,,
Mahesh Lunch Home,18.5208896,73.8725539,restaurant,,
Pune Railway Station Bus Depot,18.5265124,73.877173,bus_station,,
Yo! China,18.519486,73.8772595,fast_food,,
KFC,18.521763,73.8763897,fast_food,,
Barista Lavazza,18.5181975,73.8793295,cafe,,
Airport Car Parking,18.5784277,73.9093571,parking,,
Toit brewery and Resturant,18.5540074,73.9051438,restaurant,,
Rajdhani,18.5452508,73.9063531,restaurant,,
Wills Lifestyle,18.5175668,73.8795011,,,
Hotel Mahableshwar,18.5552434,73.7983529,restaurant,,
Pastry Corner,18.5088106,73.8303995,cafe,,
Sanjeevani Vitalife Medipoint Hospital,18.5649263,73.8022626,hospital,,
LifeLine Hospital,18.5597445,73.8062674,hospital,,
Clarion Park,18.5586194,73.8043281,parking,,
Iceberg,18.5315199,73.8317233,cafe,,
Funky's Stuff,18.5168375,73.8787061,,,
Zamu's Place,18.5365716,73.8757543,restaurant,,
Bajaj Motorbikes,18.5331501,73.8778809,showroom,,
Sadanand Resorts,18.5683679,73.7666377,restaurant,,
Baner Post Office,18.5699952,73.7663802,post_office,,
Elite Empire,18.574226,73.780274,parking,,
Mantri Lawns,18.5598879,73.8070055,parking,,
Dr. Chowdhary,18.5547291,73.8082012,hospital,,
Dr. Bonagiri,18.5554816,73.8088556,hospital,,
Spicer Health Foods,18.5630488,73.8195308,fast_food,,
Khadki Fish Market,18.5618077,73.8376836,,,
Sanskriti Prangan,18.5662214,73.7822591,residence,,
Chung Fa,18.5169144,73.8794546,restaurant,,
Mayur Thali,18.5166042,73.8795245,restaurant,,
Shree Sakthi Hospital,18.5883392,73.8015444,hospital,,
Ram Dev Store,18.543612,73.7858854,,,
Lokseva CBSE School,18.5463629,73.7838017,school,,
Ishwar Drug House,18.5434538,73.7845372,pharmacy,,
Metro Chemists,18.543525,73.7843119,pharmacy,,
Hotel Parichay,18.5435148,73.7841772,restaurant,,
Hotel Prasanna,18.5435326,73.7844503,restaurant,,
City Pride Multiplex,18.4886957,73.857908,cinema,,
Karva Hospital,18.5009733,73.8461063,hospital,,
Dhanashree Supermarket,18.5440332,73.782124,,,
Sri Krishna Temple,18.6579448,73.7701877,place_of_worship,,
Gayatri Pure Veg,18.6584092,73.7689483,restaurant,,
Dakshinmukhi Maruti Mandir,18.6569893,73.7680848,place_of_worship,,
Kendriya Vidyalaya No. 2 Dehu Road,18.6730544,73.7459281,school,,
Mahatma Gandhi Marathi Vidyalaya,18.6770184,73.734105,school,,
Ayurvedic Hospital,18.6548547,73.7696807,hospital,,
Kirti Vidyalaya High School,18.6571621,73.7663392,school,,
Ashapura Stationery,18.5442452,73.7829196,,,
Jeevan Deep Medicare Centre,18.5432946,73.7838496,hospital,,
Dr. Rangappa's Ayurvedic Clinic,18.5437305,73.7852375,clinic,,
Sai Dabeli Centre,18.5433033,73.7849183,fast_food,,
Dr. Mane's Dental Clinic,18.5424578,73.7907722,dentist,,
VitaLife Clinic,18.5424692,73.7907426,clinic,,
Shri Narayaneshwar Temple,18.3013691,73.9749648,place_of_worship,,
The Gordon House,18.5380015,73.8357003,,,
Shivanjali Restaurant and Bar,18.5425963,73.7887912,restaurant,,
Wonder Funkey,18.4990996,73.7892771,,,
Shri Swami Samarth Temple,18.5454777,73.7855067,place_of_worship,,
Sai Chowk Rickshaw Stand,18.5434974,73.7856128,taxi,,
Sri Balaji Temple,18.5416824,73.7897361,place_of_worship,,
Dr. Nitin Joglekar's Clinic,18.5435561,73.7843869,clinic,,
Anand Hospital,18.6539354,73.7646919,hospital,,
Bhavani mandir,18.5132045,73.8130867,place_of_worship,,
Hotel Kinara,18.507489,73.8063898,fast_food,,
Sahyadri Hospital,18.5074625,73.8057842,hospital,,
Krishna Hospital Pune,18.5092055,73.8128199,hospital,,
PCMC_Bhavan,18.6187378,73.7863964,metroStation,,
Pratik Paav Bhaji,18.507835,73.8090612,fast_food,,
Rahul Medicals,18.5117315,73.8088896,pharmacy,,
New India School,18.5114263,73.7949421,school,,
Dashabhuja Mandir,18.5057991,73.8258505,place_of_worship,,
Fast Food,18.7117934,73.6526477,fast_food,,
गोकुळ,18.588516,73.7830226,restaurant,,
Tech Mahindra Cafe,18.5813012,73.6889905,cafe,,
Cosmos Bank Pashan Branch,18.5373285,73.7935948,bank,,
IDBI Bank,18.5424407,73.7908082,bank,,
Union Bank of India,18.544249,73.7830649,bank,,
State Bank of India Pashan Branch,18.5436126,73.7866204,bank,,
Hutchings High School,18.500656,73.881898,school,,
Vishal Mega Mart,18.5036855,73.900788,,,
Atlantis,18.4909464,73.9002064,restaurant,,
Kendriya Vidyalaya,18.4869487,73.8816048,school,,
Wisdom International School,18.5982157,73.7810899,school,,
Yerawada,18.5656319,73.8865762,cafe,,
Saint Mary's High School,18.5092631,73.8839949,school,,
Datta Mandir Chowk,18.5651755,73.9140006,,crossing,
United Colors of Benetton,18.5193591,73.877041,,,
Pizza Hut,18.5191455,73.8775238,restaurant,,
Westside,18.5191993,73.8777121,,,
Judicial Canteen,18.5243164,73.873222,cafe,,
Durga Cafe,18.4850121,73.8161195,cafe,,
ICICI Bank ATM,18.5097727,73.8141239,atm,,
Hotel Palavi,18.5098693,73.8144673,restaurant,,
Hotel Durga,18.5103221,73.8163126,fast_food,,
Dev Krupa Petrol Pump,18.6678408,73.8905684,fuel,,
MAE Boys Hostel,18.6750066,73.8919095,,,
Red rose coffee,18.6678002,73.8899675,cafe,,
"Suncity Road Fire Station, Pune",18.4754767,73.815447,fire_station,,
Sun City,18.4748763,73.8136551,bus_station,,
Madhukar General Hospital,18.4789234,73.8241232,hospital,,
Siddhivinayak Medico,18.4745969,73.8139227,pharmacy,,
HDFC Bank,18.4779601,73.8240347,atm,,
Sanskar,18.4760602,73.8156374,kindergarten,,
Dr. Mudgerikar Clinic,18.477378,73.819076,hospital,,
Dr. Bodhe Clinic,18.4745186,73.8132288,hospital,,
Dr. Naik Clinic,18.4745644,73.8140764,hospital,,
Bank of Maharashtra,18.4788316,73.8240413,bank,,
Sarswat Bank,18.4769185,73.8181727,bank,,
Reliance Smart,18.5509546,73.9376534,,,
Manas Microsystems Pvt. Ltd.,18.6278783,73.8369404,kindergarten,,
Shatrunjay Temple,18.4515076,73.878051,place_of_worship,,
Shopper's Stop,18.5214834,73.8769313,,,
Bhumkar Chowk,18.6055586,73.7525133,,motorway_junction,
Anand Magal Karyalaya,18.5010303,73.8551825,community_centre,,
Sinhagad Parking,18.3645771,73.7612647,bicycle_parking,,
Tarkeshwar Shiva Temple,18.5458144,73.88207,place_of_worship,,
Medical Shop,18.6590075,73.797746,pharmacy,,
Chaphekar Chowk,18.6300865,73.7798966,bus_station,,
Coffee Street,18.648371,73.7657394,cafe,,
Shivar Garden,18.5950013,73.7875593,restaurant,,
lib,18.5748417,73.8922142,library,,
Sadal Baba,18.5436996,73.8782389,place_of_worship,,
Church,18.5582809,73.8547057,place_of_worship,,
Symbiosis Viswabhavan Boys Hostel,18.5228082,73.830083,student_accomodation,,
Global Punjab,18.5096188,73.9283508,restaurant,,
Punjab National Bank,18.5094711,73.9286247,bank,,
Darshan,18.5140762,73.8409178,restaurant,,
International Book Service,18.5149568,73.8421182,,,
Chitale Bandhu Mithaiwale,18.5155309,73.8418354,,,
Regal Bakery,18.5141066,73.8407679,,,
ICICI Bank,18.5188204,73.830977,bank,,
Pharmacy,18.516684,73.833895,pharmacy,,
Apollo Pharmacy,18.517157,73.8339486,pharmacy,,
Vet Care Pet Clinic,18.5176759,73.8345121,veterinary,,
The Four Fountains Spa,18.5167705,73.8365345,,,
Kotak Mahindra Bank,18.5179556,73.8375148,bank,,
Balbhim Mandir,18.5163177,73.8369583,place_of_worship,,
Shubham Medical,18.5134285,73.8376342,pharmacy,,
Oriental Bank of Commerce,18.5138354,73.8376342,bank,,
Cafe Good Luck,18.5172995,73.8414591,restaurant,,
Archie's Gallery,18.5176606,73.8420223,,,
Deccan Gymkhana Police Chowki,18.5141406,73.8403808,police,,
Deccan Gymkhana Post Office,18.5151122,73.8418668,post_office,,
Vegetable Market,18.5146798,73.8418077,,,
R Deccan Multiplex,18.51645,73.8423388,cinema,,
HP,18.517035,73.8419687,fuel,,
P.G.HOSTEL,18.4594674,73.8558809,,,
Honda Shop,18.4711224,73.8564785,,,
Bharat Petroleum,18.4686347,73.8580494,fuel,,
Datta Mandir,18.5103044,73.7902194,place_of_worship,,
Cafe Cofee Day,18.5086466,73.789635,cafe,,
Punjab Canteen,18.4965595,73.802295,restaurant,,
Nancy Lake Homes Swimming Pool,18.4586542,73.8603581,,,
Nancy Lake Homes Club House,18.4586694,73.8601059,,,
Bharati Vidyapeeth Police Station,18.4590242,73.8576127,police,,
KK Market,18.4694397,73.8601477,,,
Woodland Resturant,18.4747312,73.8560171,restaurant,,
D-Mart Store,18.4792277,73.8569481,,,
P N Gadgil,18.5102418,73.8190027,,,
Ganesh Temple,18.5102723,73.8091406,place_of_worship,,
Tiger Trail,18.5464794,73.9065617,restaurant,,
Hindustan Petroleum (HP),18.5939372,73.7355357,fuel,,
Manapa Bhavan,18.5230248,73.8534229,bus_station,,
Punjabi Dhaba,18.5651701,73.9113565,restaurant,,
Diamond Super Market,18.5698664,73.9109165,,,
Hotel Executive Residency,18.5411401,73.8877559,,,
Gypsy Tents,18.5095196,73.8722916,,,
Ganesh Super Shopee,18.4628604,73.8047957,,,
Rajyog C Play area,18.4624942,73.8041016,,,
Car Parking DP Road,18.462484,73.8052603,parking,,
Pushpak General Store,18.6008347,73.7639913,,,
Pimple Saudagar Police Statiom,18.6015562,73.7993609,police,,
Subway,18.596572,73.789165,fast_food,,
Domino's,18.5957803,73.7882522,fast_food,,
One way Food,18.4922841,73.8337744,restaurant,,
Pruthvi Vegetarianism,18.4945107,73.8134701,restaurant,,
Basuri,18.4800904,73.8569229,restaurant,,
Khooshabu,18.4633503,73.8583829,restaurant,,
Shamli,18.5050823,73.9279049,restaurant,,
Bashri,18.5032866,73.9277976,restaurant,,
Abhiruchi City Pride,18.462949,73.8165301,cinema,,
Cosmos Co-operative Bank Ltd Branch,18.4961399,73.8033154,bank,,
Cosmos Bank,18.496028,73.8017624,bank,,
Podar International School,18.6247358,73.7865421,school,,
Oam Ganesh Temple,18.6194568,73.7826667,place_of_worship,,
Abhishek Veg,18.5037935,73.8306467,restaurant,,
Meghdoot,18.4807993,73.8752608,restaurant,,
Panchami,18.4926639,73.8574632,restaurant,,
Smokin' Joe's,18.4919816,73.8574616,fast_food,,
parmar Tailer,18.6429311,73.7717557,marketplace,,
Vedant,18.4887519,73.8571728,restaurant,,
Shewale Hospital,18.5626652,73.8325327,hospital,,
Indraprasta Karyalay,18.5387294,73.830199,community_centre,,
"Oasis Restaurant, Bar and Banquets",18.4977614,73.7876344,restaurant,,
shitai hotel,18.6768318,73.8773743,,,
JK Hill Park Bus Stop,18.4513059,73.8110435,bus_station,bus_stop,
Trimurti Hospital,18.462396,73.8150518,hospital,,
Sun Medico,18.4747326,73.8132241,pharmacy,,
Dadimata Shop,18.4744681,73.8156488,,,
Tupperware @ Masurkar,18.4752211,73.8134065,,,
Reliance Mart,18.5631428,73.8071709,,,
Pesto Pesto,18.5381475,73.9068979,cafe,,
St Thomas Orthodox Church,18.5629768,73.8397559,place_of_worship,,
Varadshree Karyalay,18.5104607,73.8538907,events_venue,,
Namah,18.6003507,73.7757061,restaurant,,
Dominoz Bharati Vidyapeeth,18.4586483,73.8584426,fast_food,,
Bread Story,18.5446577,73.9056381,,,
Malaka Spice,18.5374326,73.8973367,restaurant,,
New swimming center,18.4773901,73.8187812,,,
Dorabjee's - Viman Nagar,18.5685148,73.9074459,,,
Great Kebab Factory,18.5532327,73.9378665,restaurant,,
mahalaxmi bus stop,18.5707917,73.8792033,bus_station,,
Marrakesh,18.5487745,73.9056726,restaurant,,
Abhiman Hotel,18.5405197,73.8192184,restaurant,,
Rajmudra Petroleum,18.6124229,73.7175038,fuel,,
One Way Foods,18.4956381,73.8107689,restaurant,,
Boudh Vihor Temple,18.4705278,73.8558611,place_of_worship,,
Khandale Scrap Store,18.4706911,73.8558424,,,
Kirane Store,18.4701944,73.8555833,,,
Krushna Store,18.47,73.8558889,,,
Maruti Temple,18.4705833,73.8555974,place_of_worship,,
Mhasoba Bamaj Temple,18.4709167,73.85525,place_of_worship,,
Primurti Hairdresser,18.4704167,73.8556389,,,
Puja Beauty Parlour,18.4707046,73.855221,,,
Raju Pardeshi Tailor,18.4706097,73.8552211,,,
Ram Super Store,18.4706604,73.8552211,,,
Shankar Mandir Temple,18.4701667,73.8552778,place_of_worship,,
Sohan Store,18.4709233,73.8558389,,,
Somaj Mandir Temple,18.4700556,73.8559167,place_of_worship,,
Ganesh Sanjay Temple,18.4716111,73.8558333,place_of_worship,,
Mahalaxmi Bangles,18.4714167,73.8556667,,,
Mahalaxmi,18.4709444,73.8555278,,,
Mhasoba Temple,18.4715833,73.8553889,place_of_worship,,
Nav Ekta Mitramandle,18.47125,73.8558611,place_of_worship,,
Samaj Mandir,18.4701962,73.8559466,kindergarten,,
Swami Samorth,18.4713333,73.8554722,,,
Basho's,18.5306779,73.9183814,restaurant,,
Eddie's Kitchen,18.5175183,73.8748581,restaurant,,
Shape and Glow,18.6481157,73.7701465,,,
Sambhaji chowk Indian Oil,18.6472491,73.7701392,fuel,,
Mezza9,18.5942596,73.734581,restaurant,,
Manthan Mishthan,18.6007386,73.7640197,,,
Baba computers,18.4972413,73.8395618,,,
The Mobile Store,18.5101044,73.8177429,,,
Aircel Gallery,18.5101095,73.8178127,,,
Canara Bank,18.6433377,73.7723353,bank,,
Axis Bank,18.5049281,73.8180109,bank,,
The Phoenix Library,18.5132392,73.8491157,library,,
Reliance Smart Bazaar,18.4991655,73.821795,,,
College of Agriculture,18.5319801,73.8446658,school,,
Kotak Mahindra ATM,18.5106824,73.8175894,atm,,
Sanjiwini Hospital,18.4433669,73.848079,hospital,,
Hanuman Super market,18.446812,73.8491251,,,
Sehgal Autoriders Maruti Service,18.5228452,73.7692736,,,
Chowgule Industries Maruti Service,18.4427184,73.8603123,,,
Shree Mahalaxmi Sabhagruha,18.4958334,73.8516004,community_centre,,
D mart,18.544444,73.9111235,,,
Ganesh Peth Police station,18.5161748,73.8621906,police,,
Chowgule Maruti Suzuki Showroom,18.4878834,73.856196,,,
Neelkamal,18.3148581,73.8640451,restaurant,,
Shiv Mandir,18.6021761,73.7993505,place_of_worship,,
Shiva Temple,18.475961,73.895611,place_of_worship,,
Baker's Point,18.477164,73.895874,,,
The Bishop's Co-Education School,18.4581575,73.9150286,school,,
Hinjawadi Post Office,18.5864538,73.7368395,post_office,,
Donut Magic,18.481153,73.901725,restaurant,,
Faaso's,18.4789604,73.9017808,fast_food,,
Indira Vasahat,18.481568,73.900633,bus_station,bus_stop,
RIMS International School and Junior College,18.4772712,73.9021993,school,,
Dashabhuja Ganapati,18.4891341,73.8460637,place_of_worship,,
Laxminagar Police chowky,18.4896021,73.8497008,police,,
Forever Music Pvt. Ltd / Forever Arts Academy,18.48977,73.8433439,school,,
Sicilia Italian Restaurant & Lounge,18.539333,73.87508,restaurant,,
Bizzbay,18.4693177,73.9001256,,,
Choice Hardware,18.477466,73.89492,,,
The Village,18.477122,73.89507,bar,,
Sant_Tukaram_Nagar,18.6125595,73.7972155,metroStation,,
Lazy Pipes Café,18.4790602,73.9017582,fast_food,,
Brew Brothers,18.477798,73.9016322,cafe,,
Novelty Beauty Parlour,18.4783032,73.9015583,,,
Mumbai Chowpatti,18.4795875,73.901369,fast_food,,
Graffiti Bookstore,18.481689,73.900789,,,
Prabhat Super Shoppe,18.477099,73.895156,,,
Prakash Super Shoppe,18.4774802,73.89503,,,
Diamond Bakery,18.5048115,73.9011924,,,
Bhairavnath Mandir,18.5069608,73.8987734,place_of_worship,,
Intencity,18.5141993,73.8754965,,,
SBI ATM,18.5255233,73.8295486,atm,,
State Bank of India,18.5255743,73.8295482,bank,,
Parvati Museum,18.4972669,73.8468291,,,
Parvati,18.497561,73.8470954,place_of_worship,,
Snakpak,18.5469392,73.8056681,vending_machine,,
IISER New Hall of Residence,18.5435714,73.8058684,,,
Indian In A Box,18.5940851,73.7341604,restaurant,,
Hinjawadi Police Chowki,18.5917477,73.7387073,police,,
Shani Maruti Temple,18.4683694,73.8639829,place_of_worship,,
Panchvati Gaurav,18.5178988,73.8386127,restaurant,,
Sinhagad Fort,18.3651456,73.7552242,,,
Gandhi Bhavan Library,18.4964855,73.803304,library,,
IndusInd Bank,18.5003624,73.8224487,bank,,
Bal Shivaji Chauk,18.5046947,73.8388301,,traffic_signals,
Bakaji Chowk,18.5170163,73.7713053,,motorway_junction,
Kollage Food Court,18.5138821,73.8285786,cafe,,
Yerawada Police Station,18.5527989,73.8957965,police,,
Janata Sahakari Bank,18.5596624,73.9282894,,,
More,18.5508077,73.9392535,,,
Bangalore Iyengar Bakery,18.5618865,73.9318372,,,
Star Bazaar,18.5614294,73.9172036,,,
Bank of India,18.5650297,73.9161442,bank,,
Kukudku,18.5511636,73.939013,,,
Samir Chicken And Eggs,18.5510223,73.9391358,,,
Local Fishmonger,18.5578799,73.9314432,,,
Amir Chicken And Eggs,18.564969,73.9174743,,,
Butter Brews,18.533123,73.8970243,fast_food,,
Greenfood,18.501756,73.8105515,restaurant,,
Kothrud Fire Station,18.4988894,73.8134797,fire_station,,
Raymond,18.5173092,73.842353,,,
Vasu Medicals,18.502253,73.8047919,pharmacy,,
Sweet Chariot,18.527138,73.8416279,cafe,,
The Flour Works,18.5490038,73.9004452,restaurant,,
Gera Junction,18.4858591,73.8889844,,traffic_signals,
DCC,18.5166827,73.8440779,,,
Wadeshwar,18.5184279,73.8416116,restaurant,,
Khunya Murlidhar Mandir,18.5115855,73.8505554,place_of_worship,,
Bajirao I statue,18.520627,73.8553084,,,
Maharshi Dhondo Keshav Karve,18.5019805,73.8150555,,,
Amrapali,18.518642,73.8415805,restaurant,,
Barbeque Nation,18.5163182,73.8423121,restaurant,,
Champion Sports Wear,18.5162446,73.8415571,,,
Champion Sports,18.5162224,73.8414623,,,
Vaishali,18.520848,73.8412179,restaurant,,
Venus Traders,18.5193628,73.8420529,,,
Naturals,18.5231678,73.8475945,ice_cream,,
FC Road,18.5220938,73.8412187,parking,,
Baadshahi,18.5086926,73.8488417,restaurant,,
Jaihind Collections,18.5048222,73.8217262,,,
Lokmanya Nagar Post Office,18.4991861,73.8449616,post_office,,
Khandujibaba Vitthal Mandir,18.5145601,73.8427254,place_of_worship,,
Padmavati Mandir,18.4773167,73.8547704,place_of_worship,,
Gyaneshwar Maharaj,18.6771074,73.8967097,place_of_worship,,
Atithi,18.6720025,73.8898157,restaurant,,
MAE girls hostel,18.6702136,73.8891934,,,
Balagandharva Police Station,18.5222358,73.8478417,police,,
Dulya Maruti,18.5162403,73.8627746,place_of_worship,,
Sant Kabir Police Station,18.5148758,73.8688574,police,,
Kasba Ganpati,18.5190304,73.8572406,place_of_worship,,
Surya Sahyadri Hospital,18.521259,73.8556767,hospital,,
circle of queen,18.4773331,73.8965901,,turning_circle,
Navi Peth Vitthal Mandir,18.5099251,73.8458716,place_of_worship,,
Sai Mandir,18.4852771,73.941354,place_of_worship,,
Shri Mahadev Mandir,18.485352,73.9395166,place_of_worship,,
Ganpati Mandir,18.4908548,73.9320082,place_of_worship,,
Tukai Temple,18.4875613,73.9470199,place_of_worship,,
Rajas Garden,18.5300088,73.8320743,,,
Bharati Vidhyapeeth College Of Engineering,18.4566136,73.8563024,college,,
Roopali,18.5193443,73.8414253,restaurant,,
Sumitz,18.5765004,73.7645476,clinic,,
New Poona Bakery,18.5639085,73.7829244,,,
Do Say Idlicious,18.5617981,73.7835145,restaurant,,
Jhulelal Hindu Temple,18.484929,73.9029662,place_of_worship,,
CNG PETROL PUMP,18.5921702,73.8037493,fuel,,
Untade Maruti Mandir,18.5194948,73.8672569,place_of_worship,,
Vishrambag Wada,18.5137558,73.8531763,post_office,,
Amul,18.2998596,73.874463,cafe,,
Chaitanya Paranthas,18.5097729,73.816251,restaurant,,
Maruti Suzuki,18.5267177,73.8300017,,,
DSK Toyota,18.5301849,73.8371555,,,
Eden Court,18.5325596,73.8341131,restaurant,,
Little Italy,18.5348218,73.8381397,restaurant,,
Om Super Market,18.5328717,73.8340408,,,
Perugate Police Chowki,18.5113926,73.8487755,police,,
Someshwar Mandir,18.5138161,73.8604832,place_of_worship,,
Soul Kitch,18.5348843,73.8381849,restaurant,,
Visava Maruti Mandir,18.5112645,73.8426877,place_of_worship,,
Bavdhan Police Chowki,18.5224956,73.7795837,police,,
Chitale Bandhu Mithiwale,18.5080977,73.7964418,,,
Four Seasons Restaurant & Bar,18.5036735,73.8215607,restaurant,,
Yolkshire,18.5032899,73.8216326,restaurant,,
Hanuman Mandir,18.5240472,73.8177328,place_of_worship,,
Burger King,18.5391378,73.9046835,fast_food,,
Badhai Sweets,18.5018306,73.8050111,,,
Joshi's Museum of Miniature Railways,18.5014117,73.822364,,,
Kothrud Post Office,18.5019716,73.814668,post_office,,
Yashwantrao Chavan Art Gallery,18.5029785,73.8123271,arts_centre,,
Kalewadi Phata,18.6036761,73.7772787,,traffic_signals,
Jnaneshwar Paduka Mandir,18.5268189,73.8416266,place_of_worship,,
Krishna Pure Veg,18.487046,73.8128332,restaurant,,
Shivsagar,18.5202983,73.8457959,restaurant,,
Gold's Gym,18.4991044,73.822031,,,
Shell,18.5988819,74.0051157,fuel,,
Hindustan Petroleum,18.6089666,74.0149322,fuel,,
Alankar Police Chowki,18.4984329,73.8262153,police,,
Chaat Cafe,18.5013222,73.8221818,restaurant,,
Garud Ganapati Mandir,18.5136612,73.8456282,place_of_worship,,
Mati Ganapati Mandir,18.515851,73.8467687,place_of_worship,,
Senadatta Police Chowki,18.5052065,73.8446033,police,,
Cafe Eastwood,18.4987178,73.8193274,cafe,,
Siya,18.4990493,73.8193074,restaurant,,
Hatti Ganpati Mandir,18.5112234,73.845858,place_of_worship,,
Abhishek Non-Veg,18.5040868,73.8305613,restaurant,,
Kalinga Seafood Restaurant,18.5080294,73.8350616,restaurant,,
Karur Vysya Bank,18.5030666,73.818513,bank,,
Manali,18.5027646,73.8288666,restaurant,,
Pavitra,18.5014649,73.8268161,restaurant,,
Swami,18.5080004,73.8350198,restaurant,,
Kalyani Veg,18.5457379,73.9058142,restaurant,,
Narayan Peth Police Chowki,18.5162004,73.8478649,police,,
The Bounty Sizzlers,18.5488016,73.9054218,restaurant,,
Padma Cafe,18.5094182,73.8300312,fast_food,,
Symbiosis Institute Of Technology,18.5412214,73.7274563,college,,
Café Coffee Day,18.5001122,73.8143802,cafe,,
Cafe Durga,18.5060236,73.817776,cafe,,
Konkan Express,18.4981982,73.8139826,restaurant,,
Sheetal,18.5024496,73.8161157,restaurant,,
Desai Bandhu Ambewale,18.5031476,73.818765,,,
Kimaya,18.5049037,73.8219181,restaurant,,
Lagu Bandhu,18.5076157,73.8297186,,,
Olivia,18.5054189,73.8232962,restaurant,,
Sadanand,18.505459,73.8232862,,,
Sai Driving School,18.5023626,73.8152963,driving_school,,
Rana,18.5023108,73.8050581,restaurant,,
Rakshak Society Chowk,18.5820092,73.7976175,,traffic_signals,
Patrya Maruti,18.5152989,73.8501817,place_of_worship,,
Casa Lolo,18.5169498,73.8339362,restaurant,,
Mainland China,18.5314274,73.8293605,restaurant,,
Infosys Cricket Ground,18.5975831,73.7092332,,,
Natraj,18.5020727,73.8562922,restaurant,,
Ramesh Super Market,18.5252664,73.8300383,,,
Shivaji Chowk,18.5913426,73.738919,,traffic_signals,
Ghar Kaa Khana,18.5941458,73.7333771,restaurant,,
Vithoba Temple,18.5097638,73.8016254,place_of_worship,,
Ramkrishna Paramhansnagar Sarvajanik Ganeshotsav Mandal,18.5103466,73.8032578,place_of_worship,,
Shri Laxmi Dhaam,18.5392072,73.7836645,social_facility,,
Makkah Masjid,18.5053068,73.8624537,place_of_worship,,
Farog E Nabavi Masjid,18.5063861,73.8626153,place_of_worship,,
Mominpura Kabrastan Masjid,18.5050814,73.8638276,place_of_worship,,
Station Masjid,18.5272351,73.8720631,place_of_worship,,
Khadki Police Station,18.5571921,73.8454253,police,,
Shani Mandir,18.5131263,73.8537361,place_of_worship,,
Tambdi Jogeshwari,18.5165314,73.8547653,place_of_worship,,
Eatsome,18.5032321,73.8216498,restaurant,,
Samarath Hotel,18.50746,73.8083522,restaurant,,
Royal Only Chicken,18.5103419,73.8164334,restaurant,,
BOI ATM,18.5093073,73.8142557,atm,,
Neel Medicals,18.5062595,73.8174209,pharmacy,,
Bike Gurus,18.5062639,73.8174548,,,
Shreeman Hotel,18.510417,73.8166493,bar,,
Naturals Icecream - Kothrud,18.502392,73.8157895,ice_cream,,
Thomas Cook,18.5056332,73.8175407,,,
cafe durga,18.5155055,73.8155019,cafe,,
Mini Market,18.5062267,73.8172561,,,
Central Bank of India,18.5059097,73.8169817,bank,,
Hotel Khybar,18.5177814,73.8436294,bar,,
Poonam Textiles,18.5169717,73.8434336,,,
Priyanka,18.5169142,73.8433826,,,
Sukanta,18.5169481,73.844257,restaurant,,
Yana Sizzlers,18.5279415,73.84293,restaurant,,
Dr. Chavan Clinic,18.5062105,73.8169503,clinic,,
Hotel Nimbalkar,18.4997954,73.8222785,restaurant,,
Mr. Gelato,18.5033991,73.8194485,cafe,,
Birdy's Cake Shop,18.503162,73.8200213,cafe,,
Citi Bank ATM,18.5032984,73.8202144,atm,,
Neeta Travels,18.5102252,73.8182838,,,
Vodafone Idea,18.5105633,73.8183811,,,
Andhra Bank,18.5234997,73.8468419,bank,,
Bal Shivaji Mitra Mandal,18.5044665,73.8386321,place_of_worship,,
Chetan Medicals,18.4987396,73.8389126,pharmacy,,
Volkswagen Pune West,18.5403032,73.8179407,,,
Bhagawati Mini Market,18.5062531,73.8173321,,,
Timex,18.5014884,73.8150532,,,
Asian Melange,18.5014463,73.8142232,restaurant,,
Krishna Drug Store,18.5100192,73.9282055,,,
Ranveer Medical,18.5098183,73.9281935,pharmacy,,
It's Miller Time,18.5096421,73.9281767,,,
Advanced Dental Care Center,18.5100712,73.9281663,dentist,,
Omkar Clinic & Sonography Center,18.5099987,73.9281637,doctors,,
my Dental Clinic,18.5094531,73.9285606,dentist,,
Chennai Express,18.5093984,73.9281865,restaurant,,
Dr. Dixit's Dental Speciality Clinic and Implant Centre,18.5655529,73.9180392,dentist,,
D. G. Copiers,18.5134685,73.8496565,,,
Kheliya,18.5011458,73.8255598,,,
Lokmanya Vachanalay,18.5086516,73.846209,library,,
Sujata Mastani,18.5117375,73.8520533,ice_cream,,
Sumitra,18.5039234,73.8211374,restaurant,,
Vishweshwar Bank,18.5079385,73.8348992,bank,,
Bal Tarun Mandal,18.5056058,73.8254594,place_of_worship,,
Bata,18.5170287,73.8434812,,,
Blackberrys,18.5196777,73.8452633,,,
"Cosmos Bank, Kothrud Branch",18.5038665,73.8201973,bank,,
"DNS Bank, Kothrud Branch",18.5019776,73.8148199,bank,,
Federal Bank,18.5233029,73.8474353,bank,,
"The Karad Urban Co-op Bank Ltd., Kothrud Branch",18.504852,73.8217985,bank,,
Zanbaqq,18.510171,73.8159984,restaurant,,
Adidas,18.521793,73.8469923,,,
Catholic Bank,18.5040675,73.9007899,bank,,
HSBC,18.5189172,73.8305248,bank,,
Kasba Peth Police Chowki,18.5204757,73.8560378,police,,
Navagraha Shani Mandir,18.519789,73.8562818,place_of_worship,,
Paud Phata Police Chowki,18.5064508,73.8245986,police,,
Fatima Convent Sahyadri Clinic,18.5045156,73.9008129,hospital,,
Samadhan,18.5157746,73.8564341,restaurant,,
Saraswat Bank,18.5041228,73.9007927,bank,,
"Saraswat Bank, Dahanukar Colony Branch",18.4959097,73.808853,bank,,
Tamboli Masjid,18.5161693,73.8598348,place_of_worship,,
Sonya Maruti,18.516055,73.8594099,place_of_worship,,
Gupte Hospital Of Accurate Diagnostics Pvt Ltd,18.519051,73.8398724,hospital,,
Rajmal Lakhichand Jewellers,18.5093845,73.8323123,,,
Andy's,18.5194753,73.7785948,restaurant,,
Gangar Eyenation,18.5086504,73.8308712,,,
Grahak Peth,18.5076531,73.8508179,,,
MR.DIY,18.5024596,73.802746,,,
Trikaya,18.519189,73.778669,restaurant,,
Chowgule Industries,18.501842,73.8697472,,,
"HDFC Bank, Shankarsheth Marg Branch",18.5019351,73.8693202,bank,,
Kothrud Petrol Circle,18.502417,73.8151546,car_wash,,
Swargate Police Station,18.5007921,73.8591594,police,,
Agraj,18.5093772,73.8480271,,,
Prabhag 51 B,18.5077591,73.8503217,,,
Saffron,18.5077877,73.8443855,restaurant,,
Chillies,18.5346916,73.9120424,restaurant,,
Mad Over Donuts,18.5192288,73.8454021,fast_food,,
St. Patrick's Cathedral,18.5088409,73.8982144,place_of_worship,,
Rajgad Petroleum,18.322444,73.8570873,fuel,,
Solaris Club,18.5569559,73.7959196,,,
Lotus Paediatrics Clinic,18.5576785,73.7935963,doctors,,
Dr Gupte Hospital,18.5576203,73.7936755,doctors,,
Girme Farms,18.5556959,73.7947787,,,
Royal Enfield,18.5585362,73.7922897,,,
Pancharatna Stores,18.5560799,73.7945132,,,
Priyam Novelties,18.5557315,73.7947063,,,
Maruti Care Point,18.5530717,73.8030453,,,
Accord Hospital,18.567225,73.7689211,hospital,,
DMart,18.5669885,73.7696587,,,
Om Dalvi Memorial Tennis School,18.5608474,73.8079872,,,
AIMS Hospital,18.5625409,73.8106962,hospital,,
Dr. Shamrao Kalmadi School,18.5621137,73.8111468,school,,
Pandit Bhimsen Joshi Kalamandir,18.5633545,73.8128903,theatre,,
Aundh Market,18.565648,73.8119247,marketplace,,
Vijay Sales,18.5551316,73.7974138,,,
SBI,18.4961742,73.8041568,atm,,
Pantaloons,18.5313129,73.8297192,,,
Sharao Lawns,18.5122671,73.8133078,restaurant,,
Swapna Poorti Hall,18.5194852,73.8168384,townhall,,
Shiv Samartha Hall and Garden,18.5125894,73.8137867,townhall,,
Vithal Kamat's,18.3196516,73.8589474,restaurant,,
mothers kitchen,18.5751542,73.7662351,restaurant,,
Kaka Halwai,18.5602962,73.806422,,,
"Naik Hospital, Pune",18.5102879,73.8594694,hospital,,
MedPlus,18.4871353,73.8150037,pharmacy,,
Crunchy and Crispy,18.484884,73.8161061,restaurant,,
Yes Bank,18.518568,73.936825,atm,,
96K,18.5254171,73.8413938,restaurant,,
Jay Ganesh,18.4942387,73.8344303,,,
Salt and Pepper,18.5081847,73.8503517,restaurant,,
Cafe Peter,18.5105251,73.7818758,cafe,,
Bavaria Motors,18.5198697,73.8738177,,,
"Janata Sahakari Bank, Kothrud Branch",18.5123208,73.83906,bank,,
Samarth Police Station,18.5203179,73.8696893,police,,
Shaniwar Peth Police Chowki,18.5200094,73.8500242,police,,
Shaniwar Veer Maruti Mandir,18.5194624,73.8518036,place_of_worship,,
Woodlands,18.5080934,73.83466,restaurant,,
Kailash Parbat,18.7117375,73.6525339,restaurant,,
Symbiosis Open School,18.5158542,73.8308867,school,,
Nishigandha,18.516772,73.8311754,,,
Viraaj Skoda,18.5188959,73.8314795,,,
Shalimar Hotel,18.5261949,73.8766929,,,
Viva Inn,18.5080071,73.7827827,,,
Syndicate Bank,18.5258909,73.8762877,bank,,
Ritz Hotel,18.5234559,73.8765561,,,
Lakme,18.5146404,73.8317306,,,
Shri Gurudev Datt Mandir,18.5163996,73.8346408,place_of_worship,,
FabIndia,18.5314631,73.8758999,,,
HAL Marut,18.5172576,73.8353667,,,
Prabhat Police Chowki,18.5145218,73.8333062,police,,
Saudagar,18.594098,73.7902498,restaurant,,
Le Plaisir,18.5181398,73.8380932,cafe,,
Kailas Bhel,18.3550616,73.8524099,fast_food,,
Sveekar,18.5064157,73.832361,restaurant,,
Indian Overseas Bank,18.6496044,73.7662788,bank,,
Madhukarrao Pavale Kaladalan,18.658532,73.777253,arts_centre,,
Pradhikaran Police Chowki,18.6621064,73.774177,police,,
Shitaladevi Aai Mandir,18.6504841,73.7834841,place_of_worship,,
Shiv Malhar Dugdhalay,18.6482478,73.7821038,,,
Bhavani Sweets,18.4473239,73.8103805,,,
Phul Pari Fruits and Vegetables Shop,18.4707002,73.8208968,,,
Brahma Garden,18.4737902,73.8221562,restaurant,,
Banyan Tree,18.4921268,73.8290703,restaurant,,
Cosmic Refrigeration,18.4436516,73.8220801,,,
Takshashila,18.4464329,73.834258,,,
SBI InTouch,18.565198,73.7740538,bank,,
Alive,18.5751481,73.774032,,,
Bharti Vidyapeeth English Medium School,18.57326,73.7752351,school,,
Renault,18.5551727,73.7713345,,,
"SVC Bank, Balewadi Branch",18.5739139,73.7766284,bank,,
Samsonite (Joglekar and Sons),18.5237544,73.8485578,,,
"Samruddhi Veg, Non-Veg Restaurant and Snacks",18.4467281,73.810231,restaurant,,
Ranka Jewellers,18.4829873,73.8268375,,,
Girija Matoshree,18.4900082,73.8270307,restaurant,,
Ambika Medicare,18.4471254,73.8105297,pharmacy,,
Mauli Snacks Center,18.4472417,73.8099931,fast_food,,
High Bliss,18.4470394,73.8167389,,,
Pul Deshpande Garden,18.4441312,73.8008065,,,
Mulik Palace,18.5491695,73.9067612,townhall,,
Citibank,18.4687024,73.8888472,atm,,
Satyanand Hospital,18.4707709,73.8886878,hospital,,
Shiv Parvati Gift and Toys Shoppee,18.4615223,73.8139446,,,
Red Rose Nursery,18.4468305,73.8264445,school,,
Ramesh Dyeing,18.4740061,73.8214626,,,
Royal Optic House,18.5081772,73.8307893,,,
U.J. Solanki,18.5135132,73.8602651,,,
Agatya,18.514425,73.8542899,restaurant,,
Bank O,18.6264548,73.8051057,atm,,
Nashik_Phata,18.6002901,73.8142896,metroStation,,
Monalisa Kalagram,18.5305204,73.90036,,,
Nature's Basket,18.5365194,73.8963504,,,
Mad House Grill,18.536566,73.8991446,restaurant,,
Kota Career Point - IIT & NEET Class - Grades 8th & 12th,18.5559857,73.9375401,,,
SPPU Guest Houe,18.5553725,73.8252303,shelter,,
"Reliance Mart , Fatima Nagar",18.5025271,73.9003371,,,
Meghmalhar,18.4443878,73.7975295,,,
Sayantara Club House,18.4437261,73.7950373,social_facility,,
Samudra,18.5079009,73.8315753,restaurant,,
Aavees,18.5103191,73.8340451,restaurant,,
Copper Chocs,18.5460794,73.7905045,,,
Dairy Don,18.5106587,73.8356461,,,
Janata Sahakari Bank Baner Branch,18.5595506,73.7905776,bank,,
Kobe Sizzlers,18.5148321,73.8289305,restaurant,,
Niranjan,18.5260651,73.8419578,restaurant,,
PMC Bank,18.5410211,73.7925951,bank,,
Samsung,18.5532967,73.7968764,,,
Saraswat Bank Baner Branch,18.555302,73.7961279,bank,,
Saraswat Bank Bavdhan Branch,18.5191714,73.7787025,bank,,
Saraswat Bank Pashan Branch,18.5413722,73.7930241,bank,,
Sehegal Autoriders,18.5138468,73.8286123,,,
ICICI,18.5120085,73.8289607,atm,,
3M Car Care,18.5514023,73.7914337,,,
Abhiruchi Sweets,18.4496975,73.8111649,,,
Ganga Bhagyoday,18.470349,73.8208294,,,
Rahane Arcade,18.4464172,73.8180297,,,
Jeevandip Stationery and Varieties,18.4511428,73.8112514,,,
New Maharashtra Bakers,18.4493237,73.810923,,,
Chandan Heights,18.4457403,73.8214789,,,
Santosh Hall,18.478362,73.8243037,community_centre,,
Savitri Garden Mangal Karyalaya,18.4472938,73.8072327,community_centre,,
Dwarka Corner,18.4485152,73.8107655,fast_food,,
Dhareshwar Medical and General Stores,18.4507175,73.8112256,pharmacy,,
Swagat Luxury Lodging,18.4448095,73.7871856,,,
Deepak Electronics and Electricals,18.4497428,73.8107698,,,
53 BT KAWDE RD.,18.5180975,73.9073985,,,
Shreemangal Palace,18.4710536,73.8210415,,,
Shamrao Vithal Co-operative (SVC) Bank Ltd.,18.4708901,73.8209384,bank,,
Chandrakant Residency A,18.4549416,73.8250136,,,
Jijai Palace,18.4544079,73.824805,,,
Jijai Heights,18.4545913,73.8248192,,,
D Palace,18.5176544,73.7801955,bar,,
Bora Hospital,18.511463,73.8625468,hospital,,
Shri Mandhar Devi Kalubai Mandir,18.4486108,73.8330513,place_of_worship,,
Sampada Sahakari Bank,18.4673022,73.818644,bank,,
Chandani Garden Restaurant and Bar,18.4642879,73.8190082,restaurant,,
New Kalyan Bhel,18.4758304,73.8229832,fast_food,,
Santosh Bhel,18.4787805,73.8244406,fast_food,,
The Cake and Cream Factory,18.481336,73.8261832,,,
Sukalyan,18.5087603,73.8163204,,,
Pankaj Society,18.5092277,73.816065,,,
Bhalchandra,18.5093022,73.8162847,,,
Shrikunjshri,18.5089814,73.816227,,,
Aditya Pure Veg.,18.5098818,73.8340488,restaurant,,
Spanish Corner,18.4471898,73.8286991,,,
State Bank of India ATM,18.5092352,73.8215006,bank,,
Bedekar Ganapati Mandir,18.5115085,73.8174668,place_of_worship,,
Rising Star Nursery,18.5145861,73.8158977,childcare,,
Ex-Servicemen Colony Post Office,18.5115141,73.8196472,post_office,,
HDFC Bank ATM,18.5107664,73.8200871,atm,,
Sai Residency,18.4483266,73.8154752,,,
Jumboking Vada Pav,18.5160792,73.842796,cafe,,
Patil Hospital,18.4791887,73.8247015,hospital,,
Hazrat Babajaan Dargah,18.5114355,73.8763288,place_of_worship,,
Kalyan Gate,18.3625613,73.7538176,,,
Pune Gate,18.3655651,73.7592159,,,
Citizen Bakery and Confectionery,18.4732006,73.8218714,,,
Siddhanath Pure Veg.,18.4476948,73.8295486,restaurant,,
Blue Cat Computer Shoppee,18.4783269,73.8238335,,,
Pramukh Medicals,18.4741113,73.8219101,pharmacy,,
W S Bakers,18.4484215,73.8315277,,,
MasterChef Restaurant and Bar,18.446348,73.8253409,restaurant,,
Asian College,18.44648,73.8207326,college,,
Durga Restaurant and Bar,18.4990512,73.8508435,restaurant,,
Bharat Vihar,18.5014406,73.8271366,,,
Shiv Shahi Complex,18.455644,73.8274524,,,
Union Bank,18.4425358,73.7992464,atm,,
Sinhagad Vikas Udyan,18.4656426,73.8176244,,,
PMC Swachata Griha,18.5169054,73.8444954,toilets,,
Dnyaneshwari Niwas,18.4485789,73.8330073,,,
Vrundavan Vihar,18.4476636,73.8296609,,,
Chandrat,18.5065163,73.818248,,,
Vijaya Smruti,18.5038408,73.8184076,,,
Saumitra,18.5009137,73.8268467,,,
Phul Pari Sweet Mall,18.4707446,73.8208968,,,
Mukta Residency,18.5382765,73.7823084,,,
Jagdamba Apartment,18.5370044,73.7828474,,,
Vitthal Complex,18.4510205,73.8298454,,,
Lake Vintage,18.5368784,73.7828508,,,
Bhakti Apartment,18.537304,73.7828828,,,
Kasarwadi,18.5890999,73.8231873,metroStation,,
Wonder Futura,18.4984881,73.7902975,,,
WS Bakers,18.5407605,73.8302241,,,
Satyam Shrey,18.5209055,73.7699445,,,
Shree Swami Landmark,18.4488879,73.8325804,,,
Pushpak Mangal Karyalaya and Garden,18.4725921,73.8218227,community_centre,,
Om Sai Collection,18.4747859,73.8225784,,,
Classic Rock Coffee Co.,18.549017,73.9063415,restaurant,,
Sumadhu Veg Restaurant,18.4896771,73.832051,restaurant,,
Purab,18.5150062,73.8425613,restaurant,,
Belbag Mandir,18.5156688,73.8556093,place_of_worship,,
Lakerya Maruti,18.5175688,73.8659234,place_of_worship,,
Vitthal Mandir,18.5125862,73.8435784,place_of_worship,,
Allen Solly,18.5183544,73.8441782,,,
Bags & Baggage,18.517382,73.8438311,,,
Bhajiram Mandir,18.5160196,73.8477647,place_of_worship,,
Corporation Bank,18.518195,73.8445681,bank,,
Deccan Corner,18.5163515,73.8423676,restaurant,,
Floyds 23,18.5190715,73.8452439,cafe,,
Footin,18.5173386,73.8437926,,,
Louis Philippe,18.5183994,73.8442031,,,
Marne Paan House,18.5166694,73.8431412,,,
Mayfair Tailors,18.516697,73.8432086,,,
Metro Optician,18.5166853,73.8432016,,,
Mochi,18.5163161,73.8423676,,,
Peter England,18.5174924,73.843912,,,
Ravindra,18.5172573,73.8437168,,,
SVC Bank,18.5182807,73.8439874,bank,,
Shoe Paradise,18.5182364,73.8446007,,,
Roshal Garden,18.6291755,73.8517596,restaurant,,
Shiv Medico,18.4545244,73.8118802,pharmacy,,
Hotel Abhijeet New Sweet Home,18.5135819,73.8518395,,,
Maruti Mandir,18.5124787,73.805967,place_of_worship,,
Laxmi Mutton Shop,18.5558268,73.8181944,,,
Mia Cuccina,18.5377222,73.8989649,restaurant,,
Toscano Pune Koregaon Park,18.5329864,73.8968166,restaurant,,
Yogi Tree Cafe,18.5412531,73.8876529,cafe,,
Naivedyam,18.4973177,73.8539536,restaurant,,
Bhau's Cafe,18.5440664,73.7816736,cafe,,
SD Cafe,18.5440073,73.7817491,cafe,,
Namaskaar,18.5440037,73.7820129,restaurant,,
Pagdandi,18.5523223,73.7931643,cafe,,
Nakshatra,18.5430632,73.7804692,restaurant,,
Om Sai Burger,18.5441534,73.7812358,fast_food,,
Egg Bhurji,18.5441023,73.7812852,fast_food,,
Shakti Wines,18.5436635,73.7859974,,,
V.M. Gany Sports Complex & Pavilion,18.504507,73.8763368,college,,
Anglo Urdu Boys High School,18.5050361,73.874985,school,,
State Bank ATM,18.546023,73.7904805,atm,,
Pune Institute of Computer Technology,18.4575638,73.8507352,college,,
The Breakfast Cafe,18.5233913,73.7804892,cafe,,
Hotel Surabhi,18.5029247,73.7610515,restaurant,,
Sunita Fabrics,18.511355,73.8780868,,,
Phugewadi,18.5803778,73.8282887,metroStation,,
Kailash Cold Drink House,18.5114711,73.8781232,cafe,,
Raj Chemist,18.5114771,73.8782146,pharmacy,,
Bharat Opticians,18.5115017,73.876865,,,
URO Fitness Club,18.4682063,73.8196243,,,
Namrata Electronics,18.4684906,73.8191451,,,
Hanuman & Shani Mandir,18.6130233,73.7828722,place_of_worship,,
points hostel Diat pune,18.4173415,73.7644103,,,
Bharat Petrol Pump,18.5729698,73.8348309,fuel,,
Courtyard Marriott,18.7452325,73.7885028,,,
Olivinos,18.4804056,73.9315331,restaurant,,
Ginger hotel,18.6075994,73.7515903,,,
Nanded City Fire Station,18.4602367,73.7964936,fire_station,,
Mahesh Sahkari Bank Ltd,18.5576157,73.8047243,bank,,
TJSB Bank,18.5576122,73.8045959,bank,,
SCoS General Store,18.4619526,73.8323277,,,
Rude Lounge,18.5618317,73.9180056,restaurant,,
Punjab bank,18.5139221,73.8348707,bank,,
Manyavar,18.5155532,73.8536153,,,
Natraj Book Depot,18.5165817,73.8549868,,,
Gulmohor Banquet,18.4630814,73.8166378,community_centre,,
Big Bazaar,18.46308,73.8165076,,,
Amida Fitness Club,18.4632284,73.8166331,,,
Abhiruchi Terrace Restaurant,18.4627353,73.8164543,restaurant,,
Lonkar wasti,18.5263752,73.9539218,restaurant,,
Conrad Pune,18.5351646,73.8831426,,,
cykler,18.5034954,73.8197765,,,
43 Madhughat hou soc,18.6330799,73.8399757,pub,,
Marriott Suites Pune,18.5334614,73.9106668,,,
DRDO Diat Guest House ,18.4294917,73.7692929,,,
D-Mart,18.4935105,73.9345047,,,
Amul Ice Cream,18.4936791,73.9329734,fast_food,,
my home,18.4657538,73.8162884,,,
cloud 9,18.4772699,73.9107243,,,
Jockey,18.5001234,73.8225826,,,
JM beer shopee,18.5621294,73.8030476,,,
مطعم العرب,18.4759896,73.8917034,restaurant,,
Ganesh Chowk,18.4628735,73.8459026,,turning_circle,
Homoeopathic Medical College,18.4597522,73.854721,college,,
Hotel Janjira,18.5103602,73.8157272,restaurant,,
Godrej's Natures Basket,18.536754,73.8974099,,,
Theophile,18.5328898,73.8985035,,,
The Sassy Spoon Pune,18.5339401,73.8987288,restaurant,,
Jijau upahar,18.5005376,73.8578015,fast_food,,
Pataleshwar cave temple,18.5269463,73.8498456,place_of_worship,,
Vivek Hairdressers,18.5065819,73.8446491,,,
Himali Society Gym,18.5027857,73.8320029,,,
Himali Canteen,18.503351,73.8323972,cafe,,
Coffee and Bread Art Cafe,18.5040027,73.8308185,cafe,,
Perio,18.5039441,73.8307951,,,
Surya Veg/Non Veg,18.5040052,73.83098,restaurant,,
Umesh Ceramics,18.5043493,73.8308875,,,
Mankar Dosa Centre,18.4993581,73.8264883,fast_food,,
Ganesh Bhel,18.5004707,73.8265347,fast_food,,
Papillon,18.4996048,73.8269382,,,
Abhinava Vidyalaya,18.5036978,73.8255276,school,,
Government Aided School,18.5035861,73.8241285,school,,
Reliance Trends,18.50437,73.8335296,,,
Kaka's,18.4892528,74.0247856,,,
Red Chillies,18.4885755,74.0245442,restaurant,,
Tech Mahindra Food court,18.5813816,73.6891372,restaurant,,
Tanishq,18.475912,73.8225104,,,
royal,18.515394,73.8666084,,,
Ramdara Temple,18.4437335,74.0174368,place_of_worship,,
Lalit Kala Kendra,18.5525375,73.8258551,school,,
Sagar Men's Parlour,18.5167358,73.7815834,,,
Mahalaxmi Hardware,18.5168414,73.7815098,,,
उपहारगृह,18.5471692,73.8320871,restaurant,,
Dapodi,18.5645789,73.8309112,metroStation,,
One O Eight,18.5370853,73.8987605,restaurant,,
Treebo Hotels Guest House,18.53323,73.8873459,,,
Joy Foods,18.5332739,73.8872318,restaurant,,
Kusumbai Motichand Planetarium,18.5107563,73.8448023,planetarium,,
City One,18.6331316,73.8005565,,,
Bramha Suncity Fountain.,18.5474488,73.9183143,fountain,,
Tree House,18.4825852,73.8151877,school,,
Defence Institute of Advanced Technology DIAT,18.4242379,73.7587028,university,,
Points Cafe,18.4253317,73.7576361,cafe,,
NH37 DHABA,18.5387183,73.8343717,restaurant,,
MLIT,18.4220124,73.7598356,college,,
DIAT post office,18.4245084,73.7659214,post_office,,
Jayesh A1 Sandwichs,18.5035906,73.8204939,restaurant,,
Mahalaxmi Store,18.5201648,73.8599264,,,
Jagadamba Sweet Mart,18.52037,73.8598177,,,
Kasba Peth Post Office,18.5200369,73.8597302,post_office,,
Open theatre Sarang,18.4250233,73.7674508,cinema,,
KV DIAT,18.4278199,73.7679471,school,,
Swastishri Sabhagruha - Badmintan Hall,18.4970457,73.8245708,community_centre,,
NON,18.5098623,73.9286042,hospital,,
Shanktara Chowk,18.5221628,73.7646085,,motorway_junction,
Anokhi,18.5367456,73.8970793,,,
Apple Tree,18.5316743,73.8970091,,,
Om Shivdutta Ganga Village Mandir,18.4830614,73.9343126,place_of_worship,,
ABS Fitness & Wellness Club,18.5108171,73.9263597,,,
Shewalewadi Bus Depot,18.4954862,73.9713563,bus_station,,
Standard Chartered,18.5395793,73.8869838,atm,,
Noorani Masjid,18.5513739,73.8836738,place_of_worship,,
Bharati Vidyapeeth Medical College,18.4572357,73.8562612,college,,
Bharati Vidyapeeth Dental College,18.4572866,73.8552849,college,,
Define Aesthetics,18.5026729,73.9011164,clinic,,
Wellness Club,18.4469985,73.9004034,restaurant,,
Supreme Corner,18.520535,73.8460261,restaurant,,
Andra Bank,18.5661275,73.8165722,bank,,
Satwik Thali,18.5090306,73.8490554,restaurant,,
Aranyeshwar Temple,18.4855779,73.8526312,place_of_worship,,
National School,18.5702104,73.8264975,school,,
Old Sangvi Bus Stand,18.5752031,73.8260211,bus_station,,
Swami Narayan Gujarati Temple,18.5728482,73.8268245,place_of_worship,,
Sudit Su's Chinese Restaurant,18.4951699,73.812367,restaurant,,
Pooja Medicals,18.4952442,73.8122154,,,
Yash Eye Clinic and Laser Centre,18.4975327,73.8122449,clinic,,
Shiv Sagar,18.5602279,73.8056378,restaurant,,
Namoh Cards,18.5163331,73.8526219,,,
Amrapali Service Station,18.4693722,73.8636469,fuel,,
Biorhythm Yoga Studio,18.5561922,73.8089289,,,
Hotel Mukesh,18.5175829,73.8745041,,,
Dattawadi Police Chowki,18.5010017,73.840267,police,,
Symbiosis International,18.5867371,73.7379157,cafe,,
Model Colony Post Office,18.5288696,73.8381522,post_office,,
Sai Baba Mandir,18.4621206,73.8896169,place_of_worship,,
Apache Highstreet,18.5694127,73.7745138,restaurant,,
Mahesh Supermarket,18.462354,73.8898159,,,
Maulana Yonus Masjid,18.4631571,73.8904986,place_of_worship,,
Bajranj Bali Mandir,18.5985022,73.708689,place_of_worship,,
Good Luck Super Shoppe,18.5893354,73.7843419,,,
More Quality Store,18.5879497,73.7844052,,,
Q-Cafe,18.5862789,73.6974459,food_court,,
Reddy's Biryani Zone,18.5882951,73.7846923,restaurant,,
Aamir Chicken,18.5885119,73.7837196,,,
Durga Restaurant,18.588175,73.7840419,restaurant,,
Merazo,18.5884915,73.7794317,restaurant,,
4 Seasons,18.5938055,73.7299433,bar,,
Underground,18.5938253,73.7299741,bar,,
Hyderabad House,18.5940742,73.7338784,restaurant,,
Mughal Mahal,18.5940533,73.7352396,restaurant,,
E-Square Xion,18.5920739,73.7446669,cinema,,
Venky PG,18.5950211,73.7325957,,,
Asraya PG,18.5947156,73.732584,,,
Urban Spice,18.6994554,73.6927045,restaurant,,
Saibaba TVS,18.6477547,73.787865,,,
Mann Dairy Farm,18.5604229,73.8101069,,,
Smiley House,18.5623639,73.8296726,restaurant,,
"HDFC Bank, Khadki Branch",18.5621497,73.8380337,bank,,
"PDCC Bank, Agricultural College Branch",18.5322077,73.8492595,bank,,
Aalok,18.5253926,73.8532647,restaurant,,
Shri Sadguru Ramanand Bidkar Maharaj Math,18.518122,73.8480679,place_of_worship,,
Raj Chinese House,18.587044,73.7818507,fast_food,,
Sai Properties,18.5868514,73.7817339,,,
Durga ji Bhel,18.5871513,73.7820642,fast_food,,
Sugarcane juice,18.5875263,73.783739,fast_food,,
Juice shop,18.5874247,73.7838392,fast_food,,
Thikana,18.5909776,73.752987,bar,,
Spice Factory,18.5909395,73.7529241,bar,,
Shaurya,18.5904459,73.7689032,restaurant,,
Apple Hospital,18.5884835,73.7802163,hospital,,
Fresh Juice Centre,18.5711657,73.8785243,,,
SBI Intouch,18.5387801,73.8857014,bank,,
Akshat Hotel,18.5882192,73.7837338,restaurant,,
MK's World,18.5879955,73.7840136,,,
Bailey's Cake Shop,18.5878573,73.7841533,,,
Chakhna Point,18.5878801,73.7842087,fast_food,,
Shridutt Medical Store,18.5878374,73.7840803,,,
Punjab National Bank ATM,18.5877912,73.7840007,atm,,
Karve Ice-cream,18.5876365,73.7838738,ice_cream,,
Yaari's coffee and Chinese,18.5880258,73.7840142,,,
Central Bank,18.4862606,73.8567408,bank,,
The Shelar TVS,18.4860298,73.8567408,,,
Arco Automotive,18.486005,73.856254,,,
Dhone Suzuki,18.4862371,73.8559261,,,
Apple,18.4859019,73.8556824,,,
Ruturang Rikshaw Stand,18.4859801,73.8555211,taxi,,
"Punjab National Bank, Satara Road Branch",18.4859433,73.8553253,bank,,
Pets Empire,18.4861906,73.8544978,,,
Taware Bakery,18.4861671,73.853779,,,
"Indian Overseas Bank, Sahakanagar Branch",18.4858896,73.8537591,bank,,
Chakhna Express,18.5878868,73.7841987,fast_food,,
Airtel Payment Bank,18.5876758,73.7838618,bank,,
Crystal Honda,18.5791873,73.9749455,,,
Appolo Tyres,18.5792542,73.9750496,,,
Valentine Square,18.5880299,73.7849082,bar,,
Jyoti Medical,18.5884224,73.7840757,,,
"Vidnyan Kendra, Lohegaon",18.5896886,73.9097593,,,
Kamgar Kalyan Badminton Court,18.4820237,73.8512448,,,
NG park,18.5170485,73.8607572,,,
Vee cafe,18.4595641,73.7856,cafe,,
Radha Krushna,18.4588958,73.7868026,restaurant,,
Nanded Tyres,18.4565352,73.8003492,,,
Green Field Garden,18.4577197,73.8046959,restaurant,,
Patanjali Store,18.4596696,73.786046,,,
Bharat Bazar,18.4598503,73.7860562,,,
Food Mood,18.4598009,73.7851405,,,
Dhanlakshmi Groceries,18.4598684,73.7852749,,,
Hotel Relax Family Garden Resto Bar,18.4566671,73.8008696,restaurant,,
Adden Foods,18.4597165,73.7857277,fast_food,,
Metro Chemist,18.4598178,73.7859551,hospital,,
Cafe Chocolade,18.4599021,73.7859788,cafe,,
Damle Pediatric & general practice,18.4602735,73.7856466,hospital,,
Vodafone Store,18.4596569,73.785317,,,
Chetan Pharmacy,18.5461638,73.7905057,pharmacy,,
Jiashree Supermarket,18.5482566,73.7934856,,,
Nature Medico,18.5482191,73.7934788,pharmacy,,
Aai Shoes,18.4936877,73.825656,,,
Sadguru Snacks & Catering,18.4938505,73.825703,cafe,,
Ram Mobile Store,18.4936101,73.8256332,,,
Surbhi Supermarket,18.5439692,73.782449,,,
Pooja Super Market,18.5508617,73.7919044,,,
Happy Shopper,18.5588588,73.7788984,,,
Agraj Food Products,18.5481987,73.793319,,,
Bopodi,18.5552123,73.8361456,metroStation,,
Danish Darbar,18.5879231,73.7836573,fast_food,,
Surya Travels,18.5474765,73.7911132,,,
The Moustache Laundry,18.547502,73.7911139,,,
Wipro,18.5475255,73.7911239,,,
Chintamani Medicine Shoppee,18.5475668,73.7911259,,,
Scagegoat,18.5476138,73.7911434,restaurant,,
Krishna Mobile World,18.5476545,73.791144,,,
Diamond Super Store,18.5477804,73.7911682,,,
Uttam Medico,18.5486113,73.791071,,,
Dr Rasika's Dental Wellness Centre,18.5481911,73.7933549,dentist,,
Raj Medico,18.5481866,73.7933904,pharmacy,,
Farmer's Market,18.5482038,73.7932811,,,
Raj Drycleaners,18.5482139,73.793204,,,
Pradeep Men's Parlour,18.5482102,73.7932362,,,
Archana's Beauty Parlour % Institure,18.5482203,73.7931688,,,
M&S Outlet,18.56098,73.8070133,,,
Cinepolis West End Mall,18.5621062,73.8069945,cinema,,
Globus,18.561816,73.8070992,,,
Hollywood Opticians,18.5619304,73.8070925,,,
West End Mall Food Court,18.5619405,73.8068122,food_court,,
Polka Dots,18.5624008,73.806953,cafe,,
Onestop,18.5624097,73.8071877,,,
Shoppers Stop,18.5625114,73.8070844,,,
Play Zone,18.5618732,73.8070965,,,
Speedo,18.5617918,73.8069174,,,
Marine Drive,18.590217,73.7481242,restaurant,,
Indian Oil Petrol Pump,18.5911995,73.7489037,fuel,,
Aarya Family Garden,18.5911713,73.7485116,restaurant,,
Mi Exclusive Service Center,18.5980506,73.7579676,,,
Manny's Automobiles,18.4939774,73.8256994,,,
Spec N shades,18.493876,73.8252778,,,
Yash Laxmi Numismatic Museum,18.4919917,73.8236524,,,
Sarin Enterprises,18.4915624,73.8247629,,,
Kumudini,18.4915682,73.8246971,fast_food,,
Tejas Consultants,18.4923771,73.8238817,doctors,,
Kardile Opticks,18.4924564,73.8249853,,,
Cuts & Curls,18.4923364,73.8249607,,,
Valentino Mobile,18.4923532,73.8249087,,,
Manisha Bhel,18.4930403,73.8257982,restaurant,,
Tej Travels,18.4923624,73.8248688,,,
Sajag Securites Karve Nagar Branch,18.4923723,73.8248222,,,
Patanjali,18.4923828,73.824786,pharmacy,,
Sparkling Fashion's,18.492462,73.8247725,,,
Samrudhi Tailors,18.4923939,73.8247107,,,
Samartha Drycleaners,18.4924092,73.8246566,,,
Image Hairdressers,18.4924003,73.8246827,,,
Taste The Best,18.492413,73.8246334,,,
Nourish,18.4924216,73.8245992,,,
Tulshi Super Shopee,18.4924318,73.8245738,,,
Chakradhar Mitra mandal,18.4787747,73.8192868,place_of_worship,,
Dr. Godbole Laboratory,18.4930423,73.8251491,doctors,,
Salon Kunal,18.4930009,73.8251363,,,
Potoba,18.4921774,73.8252641,restaurant,,
Shree Ganesh Dry-Cleaners,18.4927284,73.8253952,,,
Enhance Salon,18.4927062,73.8253918,,,
Swaroop Computers,18.4926766,73.8253871,,,
Aswad,18.4925523,73.8253415,,,
Eira,18.4925208,73.8253285,,,
Pehnava,18.492295,73.8252802,,,
Cheesy Bites,18.4923268,73.8252899,fast_food,,
Lokmanya Multipurpose Co-Op Society,18.4923647,73.8252983,bank,,
Smart Care Mobile Zone,18.4924,73.8253094,,,
Ram Medicals,18.4928884,73.8254317,,,
Agraj Food Processors,18.4940596,73.8254352,,,
Punthambaker Optics,18.4940327,73.8254215,,,
Agraj Health Secrets,18.4940127,73.8254077,pharmacy,,
Vibgyor,18.493709,73.8252333,,,
Ram Electronics & Electricals,18.4936912,73.825337,,,
Varad Dental Clinic & Implant Centre,18.4935965,73.8253105,dentist,,
Jonky,18.5922097,73.7447673,restaurant,,
my daBBa,18.4922771,73.8239542,restaurant,,
Jio,18.4904944,73.8236186,,,
Toastmasters Club of Pune-West,18.5023094,73.8268308,community_centre,,
Mayur Pavbhaji,18.492924,73.8251172,restaurant,,
Paprika,18.4982663,73.8265123,restaurant,,
Suncity exit,18.4740136,73.810024,,motorway_junction,
Navshya Maruti,18.4936324,73.8354065,place_of_worship,,
Krishi Anusandhan Stn,18.5512391,73.8049943,bus_station,,
Hare Krishna Super Shopee,18.4787653,73.8193777,,,
Durga Car Decor,18.5200168,73.8307251,,,
IDFC First Bank,18.5200482,73.8307881,bank,,
La Gustosa,18.5019711,73.8147421,restaurant,,
Schön,18.5019768,73.8144404,,,
Ashirvad,18.5019488,73.8140226,restaurant,,
Khadki,18.5471789,73.8508098,metroStation,,
UCO Bank,18.501945,73.8141158,bank,,
The Dharampeth Mahila Multistate Coop Society,18.5019469,73.8140682,bank,,
De Baker's Lounge,18.502221,73.8094132,cafe,,
Katraj Dairy,18.5018051,73.8093603,,,
Pedl,18.501896,73.80932,bicycle_rental,,
Rajmandir,18.5018057,73.8093127,ice_cream,,
Naresh Trading Company,18.4941977,73.8254938,,,
Baker's Basket,18.4941678,73.82548,,,
Chocolates Ice Creams Dryfruits,18.4941408,73.825471,,,
Monginis Cake Shop,18.4941138,73.8254612,,,
Royal Investments,18.4940858,73.8254498,financial_advice,,
Jahagirdar Bakers,18.4939777,73.8253959,,,
Dr. Vidya Joshi,18.4939484,73.8253861,doctors,,
Rajashree,18.4939198,73.825358,,,
Prime Medical General Store,18.4929985,73.8256344,,,
Samartha Pav Bhaji And Juice Cetner,18.4936388,73.8252581,restaurant,,
Aryan Photo's,18.4936728,73.8252265,,,
Viva Fashions,18.4936114,73.8252121,,,
Arham Medical,18.4935179,73.8253167,,,
Arohi's Collection,18.491131,73.8222034,,,
New Pune Bakery,18.4911167,73.8222396,,,
Gayatri,18.4904604,73.8248473,,,
Vishvand Ayurvedic Clinic,18.4904025,73.8248393,clinic,,
Giriraj Inner Shoppe,18.4903033,73.8248252,,,
Inner Casuals,18.4902632,73.8248145,,,
Bodybasics,18.4902302,73.8248111,,,
Siya Creations,18.4912279,73.8246784,,,
Orchid Flora,18.4913583,73.8247025,,,
City Pride School,18.6520344,73.7722278,school,,
Sonigara Jewellers,18.6408064,73.7937123,,,
Janata Bank,18.6407225,73.7938517,bank,,
Kollage,18.5145117,73.8283664,restaurant,,
Coffee Republic,18.514478,73.8288841,cafe,,
Crazy Cheesy Cafe,18.5117222,73.8293085,cafe,,
Bavdhan Merchant,18.517674,73.7801758,bank,,
Ribbons & Balloons,18.5055066,73.8250458,,,
Drug House,18.5055168,73.8250954,pharmacy,,
Kalinga,18.5050437,73.8320678,restaurant,,
Vishwas Medico,18.5046246,73.8310976,pharmacy,,
All For Small,18.5171053,73.841534,,,
Girikand Holidays,18.5180069,73.8396055,,,
Pallod,18.5181258,73.8389222,,,
Samarth Sahakari Bank,18.5181207,73.8385192,atm,,
Nizkaya,18.5181849,73.8377719,,,
Svelte,18.5181849,73.8377333,,,
Health Care Medical,18.5181862,73.8376844,pharmacy,,
Sane Dairy,18.5179554,73.8373277,,,
Suryama,18.5180228,73.8362521,restaurant,,
Neo Artery and Vein Clinic,18.5180037,73.8360362,clinic,,
The Titan Shop,18.5182517,73.8356177,,,
Golwilkar Metropolis Heath Service (India) Pvt Ltd,18.5181296,73.8344155,hospital,,
Aarohan,18.5180826,73.8342689,,,
Bandhan Bank,18.5180962,73.8342709,bank,,
Bhangini Nivedita Sahakari Bank,18.5181074,73.8342726,bank,,
Javed Habib Hair Studio,18.5177062,73.8342163,,,
Food Junction,18.517682,73.8343772,,,
Dr. Batra's Homeopathy Clinic,18.5025575,73.8169547,clinic,,
Dr. Mangrulkar's Orthodontic and Multispeciality Dental Clinic,18.5025413,73.8168013,dentist,,
Shubhamkar Hand Clinic,18.5025462,73.8168342,clinic,,
Meshail,18.5025254,73.816778,,,
Vidya Sahakari Bank,18.5024957,73.8166264,bank,,
Mankar Dosa,18.5018725,73.8058493,fast_food,,
Sampada Bank,18.5024333,73.8162435,bank,,
Midnight Kakery,18.5018032,73.8091175,,,
Ajantha,18.507177,73.8445106,,,
Kanhere's Studio Event,18.504816,73.84199,,,
Travel India Club,18.5048154,73.8420309,,,
Mayur Medicals,18.5050332,73.8395314,pharmacy,,
Nutan Gift Shopee,18.5050221,73.8394956,,,
Mayur Sweets,18.5050074,73.8394526,,,
Chinchechi Talim,18.5085804,73.855456,place_of_worship,,
H. V. Mehendale and Sons,18.5055104,73.8537602,,,
Monarch Yamaha,18.5060827,73.8525713,,,
Gurunath Travels,18.5070807,73.8512389,,,
SP's Biryani,18.5083286,73.8502975,restaurant,,
Abhijat,18.5080689,73.8502287,,,
Parag Stationers,18.5080793,73.8502143,,,
Tilak Automobiles,18.5082269,73.8499528,,,
Shakti Sports,18.5088627,73.8485742,,,
Arihant Medicals,18.5093148,73.8481215,pharmacy,,
Darja Misal,18.509449,73.846814,restaurant,,
Rohit Coffee Corner,18.5095069,73.8468166,cafe,,
Paranjape Hospital,18.5143979,73.8460515,hospital,,
New Apoorwai,18.5142459,73.8461682,restaurant,,
Master Leather Works,18.5139191,73.8468314,,,
Guruji Talim,18.5150471,73.8546601,place_of_worship,,
Lodha and Sons,18.5133405,73.8594773,,,
Shri Niyanand Bhuvan,18.5127211,73.8585547,restaurant,,
"Hope Foundation's International Institute of Information Technolohy, Pune",18.5837559,73.7363713,college,,
Mr. Eggs,18.5880525,73.7385343,cafe,,
Keshatawar Provision Store,18.4905637,73.823412,,,
Anand Pav Bhaji,18.4907367,73.8230134,restaurant,,
Pune People's Bank,18.4908464,73.8232447,bank,,
Sanman,18.490578,73.8233399,restaurant,,
Amul Ice-cream Parlour,18.4906079,73.8232642,ice_cream,,
Just In Collection,18.4906206,73.8232186,,,
Medplus,18.4906588,73.8231451,,,
Dantale Art Jewellry,18.4906664,73.8231009,,,
"Wallpapers, Carpet Galleries",18.4906734,73.823059,,,
Aapulaki,18.4907109,73.8229752,restaurant,,
Reshama's Ladies Tailor,18.4907116,73.8229202,,,
Apex Mobile Gallery,18.4907217,73.8228578,,,
ICICI Bank - Karve Nagar Branch,18.4912938,73.8218275,bank,,
Furniture Sankul,18.4912057,73.821976,,,
Akshay Hardware and Electricals,18.4911923,73.8220149,,,
Maharastra Chemist,18.4911834,73.8220481,,,
Siddharth Collection,18.4911717,73.822084,,,
Mighty Doggys & Cat,18.4911596,73.8221192,,,
"Gungothri Home Appliances, Sales and Service",18.4911431,73.8221581,,,
Rajesh Home Appliances,18.4910998,73.8222778,,,
Rajendra Cycle Centre,18.4910728,73.8223613,,,
amante,18.4909907,73.8225956,,,
Eve's Secret,18.4910098,73.8225467,,,
Triumph,18.4910219,73.8225085,,,
Ghodela Ply And Hardware,18.4910378,73.8224565,,,
N. Madhav Ayurvedic,18.4910572,73.8224069,clinic,,
Imax - The Optic,18.4910871,73.8223177,,,
Tsaai Sshen Yeh,18.5518496,73.7932214,restaurant,,
Chota Bite by Cafe Goodluck,18.5523169,73.7938289,cafe,,
Greedy Man's Pizzeria,18.5523455,73.7938323,restaurant,,
Origin Bistro,18.5521287,73.7938182,restaurant,,
Tukaram Maharaj Mandir,18.7190654,73.7652889,place_of_worship,,
"Spandan Hospital, Pune",18.6141649,73.765762,hospital,,
Ravi Laundary & Drycleaner,18.5894244,73.7843176,,,
Scoutwheels,18.5930668,73.7628327,,,
House of Parathas,18.5953413,73.7636736,restaurant,,
Anand_Nagar,18.5078456,73.8166987,metroStation,,
Rajendra Motors,18.6113266,73.7832085,,,
Brewbakes Café|Bistro Paud Raod,18.5083054,73.8223027,cafe,,
Konark Towers,18.5749676,73.7735673,,,
Ruperi,18.503392,73.8194232,,,
Fast Photo,18.5033853,73.8193991,,,
Roonak Furnishings,18.5033761,73.8193664,,,
Glowdent Clinic,18.5033728,73.8193544,dentist,,
Mithas Sweets,18.55459,73.8092062,,,
Sai Sagar Pure Veg Restaurant,18.7378399,73.7256002,restaurant,,
Athashri Temple,18.5490934,73.789762,place_of_worship,,
Madhuban Restaurant,18.5904753,73.7501506,restaurant,,
Gokul Furniture,18.5919754,73.7630613,,,
Honda,18.5901681,73.7678033,,,
Shivam Traders,18.5888977,73.7842842,,,
Ideal Furniture,18.588865,73.7760224,,,
Barbeque Ville,18.5930421,73.7736633,bbq,,
भैरवी,18.5918931,73.7734702,restaurant,,
Fascino,18.5917061,73.7734486,,,
Oriental Kitchen,18.591382,73.7734242,restaurant,,
Manmohan Mobile and Electricals,18.5902126,73.7736539,,,
Rolls Mania,18.5930465,73.7367605,fast_food,,
Axis Bank ATM,18.5940457,73.7357227,atm,,
Fly Curry,18.592968,73.7368799,restaurant,,
Yes Bank ATM,18.5911165,73.7413549,atm,,
Yug Honda,18.5901731,73.7677996,,,
Phadke Dining Hall,18.5085454,73.8512373,restaurant,,
Om Sai Car Care,18.5903945,73.772117,,,
IndusInd Bank ATM,18.5887197,73.7799719,atm,,
IDFC Bank,18.5556747,73.8083149,bank,,
Crossword Bookstores,18.5562163,73.8089207,,,
Kadhai,18.5561911,73.8089798,fast_food,,
Baner Riverside Birdwatching Hotspot,18.5647162,73.7885848,,,
Lenskart,18.5652093,73.8071055,,,
AIMS Cafeteria,18.5629732,73.810633,cafe,,
Holiday Inn Express Pune Pimpri,18.6282118,73.8075688,,,
Krazy Kids,18.5042285,73.8207007,,,
Rajesh Bakery,18.5042848,73.8208669,,,
Laxmi Hardware and Electricals,18.5040797,73.8204733,,,
Katraj,18.5419005,73.8296163,,,
Emke Medicals,18.5411459,73.8297739,pharmacy,,
Oriflame,18.5410721,73.8298792,,,
Yashvi Enterprises,18.5402155,73.8296689,,,
Absolute Fitness,18.5402031,73.8296451,,,
Kirti Harware,18.560438,73.8088999,,,
Prakash Medicals,18.5604427,73.808984,pharmacy,,
Ramesh Mini Mart and Cosmetic,18.5604467,73.8090565,,,
Parihar Sweets and Dryfruits,18.5593676,73.8147388,,,
Hyderabadi Spice,18.5604276,73.809483,restaurant,,
Prashant,18.5604257,73.8095359,,,
Radhika,18.560421,73.8100382,restaurant,,
Chaturshrungi Tyres,18.5604219,73.810069,,,
Cell Care,18.560797,73.8107899,,,
The Belgium Waffle Co,18.560797,73.8107577,fast_food,,
Cake & Cream,18.5607957,73.8106692,,,
Ishwar Motor Driving School,18.560781,73.8110982,driving_school,,
Kimaya Skin Clinic,18.5604582,73.8126654,clinic,,
Modkharkar Clinic,18.5604899,73.8127794,clinic,,
Lakmé Salon,18.5655327,73.8039543,,,
Tangent: The Furniture Mall,18.5654996,73.8042627,,,
Ashwin Clinic,18.5655305,73.8068928,clinic,,
Rahul,18.5655328,73.8068155,restaurant,,
Bangalore Ayyangers Bakery,18.5032276,73.7987937,,,
The Malkapur Urban Co-op Bank Ltd,18.5031017,73.7996238,bank,,
The Yavatmal Urban Co-op Bank Ltd,18.5030788,73.7997848,bank,,
Rajlakshmi-Kaladarshan Hall,18.5031284,73.7997124,community_centre,,
Fitness 365 Gym,18.5085639,73.791659,,,
Pantaloons Woman,18.508527,73.7916597,,,
Shrinath Medicos,18.5074422,73.7974539,pharmacy,,
Saheli,18.5056967,73.7978046,,,
Laxmi Super Shoppee,18.505746,73.7977416,,,
Sharayu Harmony,18.5658639,73.7663376,,,
Volvo,18.5669038,73.7660372,,,
B. U. Bhandari Mercedes-Benz,18.5635526,73.7671517,,,
Škoda,18.5603717,73.7681106,,,
Audi Pune,18.5480875,73.772732,,,
Paradise Sweets,18.5647023,73.7823825,,,
Sam's Terminal,18.5645239,73.7839906,restaurant,,
Darshan Tyres,18.5648188,73.7856442,,,
Kaya,18.5739606,73.7766118,,,
Deewan Khana,18.5739308,73.7766078,restaurant,,
Shri Ganesh Sahakari Bank,18.5736899,73.7806211,bank,,
Studio 11,18.5718542,73.7811106,,,
Phoenix Pharmacy,18.5719368,73.7811099,pharmacy,,
Ashakiran Hospital,18.5719235,73.7811374,hospital,,
Akshay,18.5692493,73.7819239,restaurant,,
Van Heusen,18.5639391,73.7773012,,,
Oh So Stoned,18.5674295,73.7761183,ice_cream,,
Lokmanya Multipurpose Co-op Bank,18.5674994,73.7760787,bank,,
Mavala Darbar,18.5675534,73.7755792,restaurant,,
Nawab Asia,18.5695764,73.7745131,restaurant,,
Incognito,18.5703636,73.7739697,restaurant,,
La Pizzeria,18.5703734,73.7742737,restaurant,,
Gong,18.5703679,73.7741947,restaurant,,
Tales and Spirits,18.5718309,73.7749757,restaurant,,
Shri Mhatoba Tukaram Balwadkar Vidyalay,18.5726957,73.7744004,school,,
Orion,18.5659579,73.7728608,restaurant,,
Cabaret,18.5656884,73.7728178,restaurant,,
Post 91,18.5652905,73.7741442,restaurant,,
The Poona Canteen,18.5674237,73.7715042,restaurant,,
Elora Artisan Kitchen,18.5675463,73.7715074,restaurant,,
No Strings Attached,18.5674835,73.7714472,restaurant,,
1BHK Superbar,18.5676329,73.7715096,restaurant,,
Nirvana,18.566277,73.7713547,restaurant,,
Mystiq The Spa,18.566347,73.7713855,,,
MultiFit,18.5656335,73.7711926,,,
Surabhi,18.5254288,73.8496605,restaurant,,
Hotel Royal Palace,18.5253347,73.8495974,,,
Ranadeep Lodge,18.5309914,73.8756484,,,
Kailas,18.5309533,73.8756088,restaurant,,
Shivprasad,18.5310569,73.8757443,restaurant,,
Mangaldas Police Chowki,18.5339866,73.8789046,police,,
Nana Nani Park,18.6598634,73.7715654,,,
Flechazo,18.5926457,73.7599191,restaurant,,
Talli Twist,18.5937351,73.7571055,bar,,
Sugam,18.601005,73.754375,toilets,,
Tool Bar,18.6038223,73.7532632,bar,,
Shreeyash Electronics,18.5903806,73.7709725,,,
Surya Electronics,18.590387,73.7708759,,,
South Indian Bank,18.5904683,73.7695952,atm,,
Durian,18.5643001,73.7812306,,,
Pune Sahakari Bank Ltd.,18.5643484,73.7799311,bank,,
Kajree,18.5663508,73.7711669,,,
Kidz Avenue,18.5663075,73.7711951,,,
Men's Avenue,18.5663152,73.7711254,,,
Equitas Small Finance Bank,18.5662338,73.7713031,bank,,
Tulips,18.5571115,73.7970034,,,
Cafe Old Skool,18.5532768,73.8075129,cafe,,
Hindusthan Bakery,18.5532951,73.8070733,,,
Nosh Cafe and Kichen,18.5533066,73.8073813,cafe,,
The Blue Plate,18.5533359,73.8067814,restaurant,,
Nuts & Nibbles,18.5533188,73.8071097,,,
Kothari Hyundai,18.5549671,73.8049775,,,
Fine Foods,18.5580712,73.8040005,,,
Medical Stores,18.5598021,73.8030202,pharmacy,,
Allahabad Bank,18.5636492,73.8028184,bank,,
Kalyani Garments,18.5643074,73.8027241,,,
Trinity Music Academy,18.5642817,73.8027262,music_school,,
Wellness Forever,18.5603653,73.8093737,pharmacy,,
Peshwa,18.5604086,73.8094112,restaurant,,
Pooja Hardware and Electricals,18.5603769,73.8078151,,,
"Lokmanya Multipurpose Co-op Society Ltd., Aundh Branch",18.5603785,73.8078457,bank,,
Chappers,18.560383,73.807937,,,
Re-Born,18.5603844,73.8079662,,,
Panchali,18.5604403,73.8089415,,,
Range_Hill,18.5334765,73.8621876,metroStation,,
Parihar,18.5604315,73.8087816,,,
The Inamdar Heart Clinic,18.5604009,73.8086133,clinic,,
Akshar,18.5604194,73.8086019,,,
Foto Kwik,18.5604245,73.8086481,,,
American Tourister,18.560427,73.8086897,,,
Venky's Xprs,18.5604344,73.8088352,fast_food,,
Saltwater,18.5626701,73.8076368,restaurant,,
P. N. Gadgil & Sons,18.5640154,73.8071904,,,
Femina,18.5532393,73.807824,,,
Mukesh Super Market,18.5532434,73.8077738,,,
24 Klen,18.5532482,73.8077167,,,
Hettich Application Centre,18.5536003,73.8075592,,,
Crystal Lifestyles,18.5535864,73.8077362,,,
Sarjaa,18.5531261,73.8092758,restaurant,,
Reliance Digital,18.5541013,73.809603,,,
Reliance Footprint,18.5542589,73.8092436,,,
Shri Hanuman Super Market,18.5546531,73.8092087,,,
Admire Chemist,18.5547294,73.8092101,pharmacy,,
Dental Clinic,18.5555596,73.8090934,dentist,,
Enrich,18.555646,73.8088761,,,
Taaareef,18.5560198,73.8090143,restaurant,,
Toyzoo,18.5561965,73.8088466,,,
Mr. Veg,18.5599611,73.8092825,restaurant,,
D'Decor,18.5119759,73.8375007,,,
Pets Gallery,18.5081417,73.8307187,,,
Prem Resto Bar,18.5077353,73.8291342,restaurant,,
C. M. Drycleaners,18.5051076,73.8225051,,,
Tea Emporium,18.5051127,73.8225723,,,
Vijay Car Accessories,18.505082,73.8225068,,,
Life Care Medico,18.504266,73.8208116,pharmacy,,
Royal Net Café,18.504275,73.8208382,internet_cafe,,
Premkiran Super Market,18.5042543,73.820777,,,
Jana Small Finance Bank,18.5059008,73.8325708,bank,,
Dattatray Vishwanath Hurne,18.5031055,73.8292569,,,
Hearty Smile Clinic,18.5007136,73.8242814,dentist,,
Rich Bit Salon,18.5007301,73.8243347,,,
M4U,18.5000834,73.8226597,,,
Galaxy Optics,18.5000735,73.8226265,,,
Ambika Ladies Tailors,18.5000634,73.8225956,,,
Utsav,18.5001298,73.8227794,,,
Gandharva,18.5226465,73.8490851,restaurant,,
Saudamini Handloom,18.5167486,73.8416286,,,
perk nagar keshav,18.6245257,73.7806362,,,
The J,18.5147195,73.8154745,restaurant,,
Santosh Supermarket,18.5150977,73.8154285,,,
Yewale Tea (Yewale Chaha),18.5152024,73.8154254,,,
"State Bank of India, NRI Branch",18.5371101,73.885826,bank,,
Dadu's Sweet Emporio,18.5175955,73.8795027,,,
Café Canada,18.5272371,73.8639446,restaurant,,
Godavari Sales,18.5023844,73.8157352,,,
Nyasa Apple,18.5026742,73.8171388,,,
Vision Optics,18.5027128,73.8173291,,,
Golden Dragon,18.5027182,73.8173606,restaurant,,
TGF Cafe,18.5392176,73.8974601,cafe,,
Java,18.5390765,73.9000699,,,
Janata Sahakari Bank Ltd. Pune,18.523505,73.8461991,bank,,
Indian Bank,18.5469018,73.9011931,bank,,
Hop-In,18.5465738,73.9028902,bar,,
Mineority,18.5460101,73.9041911,restaurant,,
Cream Craver,18.5459699,73.9064354,restaurant,,
Trinity Motors,18.5462197,73.9063382,,,
Company,18.5457289,73.9064495,bar,,
The Urban Foundry,18.5448427,73.9111662,bar,,
Lord of the Drinks,18.544994,73.9057682,bar,,
Farzi Café,18.5436606,73.9050465,restaurant,,
Healthspring,18.5308191,73.8298309,pharmacy,,
Jeep,18.5306754,73.8298309,,,
Tata Motors Bafna,18.5114284,73.829426,,,
Kaya Skin Clinic,18.5547027,73.8095145,clinic,,
Ruosh,18.5547891,73.8095158,,,
Mad About Drinks,18.555037,73.8095091,bar,,
Ora Regenesis Spa,18.5550358,73.8095641,,,
Deutsche Bank,18.555571,73.8094313,bank,,
World of Titan,18.5557579,73.8094099,,,
Isa Spa,18.5564629,73.8089029,,,
P. N. Gadgil Jewellers,18.5563828,73.8089536,,,
PNG Brothers,18.5564934,73.8089271,,,
Tribhovandas Bhimji Zaveri,18.5566329,73.8088862,,,
Ornate,18.5641819,73.8131663,,,
Indane,18.562983,73.8305792,,,
I-Care Medicals,18.5628839,73.8305819,pharmacy,,
Aakash,18.5239983,73.8413832,restaurant,,
Haldiram's,18.5213482,73.8412222,fast_food,,
Nandu's Parathas,18.5359384,73.875879,restaurant,,
Just Baked,18.5357184,73.8762546,,,
Maratha Moglai,18.5358201,73.8762411,restaurant,,
Kapila,18.5340845,73.8765697,restaurant,,
Karagruh Udyog Maharashtra Vikri Kendra,18.5598949,73.8913929,,,
Oh Live Pune,18.5188022,73.9336618,bar,,
Cafe Pondi,18.5488623,73.9022208,restaurant,,
360 Degree Adventure,18.5282471,73.7454257,,,
Kala Datta Mandir,18.5187546,73.8570748,place_of_worship,,
Phani Ali Ganesh Mandir,18.5188329,73.8570996,place_of_worship,,
Chavhan Shriram Mandir,18.5189689,73.8585466,place_of_worship,,
Vishnukrupa,18.5191711,73.8499126,community_centre,,
Shrikunthunath Shwetambar Jain Mandir,18.5177049,73.85694,place_of_worship,,
Kathaa,18.5208204,73.8405007,cafe,,
Hotel Bhairavee,18.5522414,73.8033262,restaurant,,
Iron Bar & Grill,18.570359,73.7738338,restaurant,,
Guptaji Tasty Bites,18.5154534,73.8157991,cafe,,
Laxami Book Depo,18.515462,73.8154601,,,
Community cafe,18.5109027,73.8155399,cafe,,
Thikana baner,18.5545794,73.7984087,bar,,
Kibbeh,18.5607807,73.8111203,fast_food,,
Salim Hair Salon,18.5607804,73.8111317,,,
Cafe Delight,18.5151326,73.8154298,cafe,,
Om Sai Expresso,18.5127078,73.7821851,restaurant,,
Om Sai Snacks and juice center,18.5126834,73.7821774,fast_food,,
Pawar Surgical Hospital,18.5012035,73.9379293,hospital,,
BALAJI TREATS,18.4669249,73.8146529,restaurant,,
Mata Amritanandamayi Math माता अमृतानंदमयी मठ,18.6637303,73.777854,place_of_worship,,
Jewel Paradise,18.53083,73.8747421,,,
Platinum Super Market,18.555879,73.7667497,,,
Mataji Super Market,18.4600789,73.8272146,,,
Shree Datta Krupa Vegetables and Fruits Market,18.4602639,73.8260856,,,
Aaimata Super Shopee,18.4600964,73.8266859,,,
Joshi Upahar Gruha,18.5067125,73.8284664,restaurant,,
Pahunchar Swayampak Ghar,18.4992194,73.8312585,restaurant,,
Anna Vada,18.4596955,73.8244636,restaurant,,
Dilliwala Dairy Farm,18.4592446,73.8258735,,,
Rohit Wadevale,18.4593565,73.8236272,restaurant,,
Shiv Shambho Vadapav and Snacks Centre,18.4601706,73.8258956,restaurant,,
Bakers Pride Cake Shop,18.4608183,73.82575,,,
Balaji Market,18.4606762,73.825768,,,
Saraswati Trading Company,18.4608316,73.8255809,,,
Indian Bank ATM,18.4610346,73.8249897,atm,,
Mahalaxmi Sweets,18.4610753,73.8252833,,,
Shree Hari Bhel,18.4607938,73.8253909,restaurant,,
Shree Ganesh Collection,18.4608849,73.8257513,,,
Siddhivinayak Gift Corner,18.4608193,73.8254757,,,
Shivaji_Nagar,18.5302654,73.8534543,metroStation,,
Hotel Al-ZAIKA,18.4610239,73.8258406,restaurant,,
Ram Medicare,18.4604276,73.8260307,,,
Dwarika Multi-specialty Clinic,18.4600658,73.8261415,clinic,,
Trimurti Amruttulya,18.4593726,73.8235937,,,
Pulse Hospital,18.4594817,73.8233106,hospital,,
Royal Fitness Club,18.4595299,73.8232374,,,
Amrut Bhel,18.4614551,73.8133512,restaurant,,
Om Sai Hotel,18.4669663,73.8205367,restaurant,,
Red cross Library,18.5312177,73.8558569,library,,
Mini Auditorium COEP,18.5311165,73.8556592,theatre,,
Shrinath Snacks and Cafe Point,18.4606531,73.8238887,restaurant,,
Happy Selection,18.5137952,73.8552427,,,
Balaji Resorts,18.2989714,73.6771924,,,
Kamalini Kutir,18.2972028,73.6762804,,,
Marina Cafe,18.5741298,73.7391406,cafe,,
Flavours On Stone,18.5824797,73.7332687,restaurant,,
Chai Point,18.5868697,73.7339916,cafe,,
Mojo Pizza,18.5880227,73.7350591,fast_food,,
Box 8 Desi Meals,18.5878269,73.7354105,restaurant,,
Big Bang Pizza,18.5935946,73.7571543,restaurant,,
Pattal,18.5939124,73.7570927,restaurant,,
Kunal Tea and Snacks,18.5930786,73.7571597,cafe,,
Eat Zip,18.5928955,73.7571838,restaurant,,
National Travels,18.5926743,73.7572573,,,
SRS Travels,18.5925092,73.7573396,,,
Hotel Vaishnavi,18.5923032,73.7573904,restaurant,,
Healthy Bee,18.5928625,73.7591875,restaurant,,
Hotel Aradhya,18.6240428,73.663682,restaurant,,
Hotel Atharva,18.6310649,73.6500611,restaurant,,
Laxminarayan Hotel,18.631068,73.6457005,restaurant,,
K Rock Resort,18.6223551,73.6563019,,,
Sesame Street Preschool,18.6056715,73.7691846,kindergarten,,
Treebo Ranjana's,18.6038733,73.7539775,,,
Eat & Treat,18.6046824,73.7596309,restaurant,,
Gypsey Tongue,18.6046646,73.7594217,restaurant,,
Balle Balle Punjabi,18.5921016,73.7847009,restaurant,,
Al Zaika,18.5920457,73.7846808,restaurant,,
The Breakfast Box,18.5919415,73.7844945,restaurant,,
Mad Momos,18.5923593,73.784282,restaurant,,
Hot Cakes,18.5938367,73.7808971,,,
Hot Bakes,18.5942053,73.7803928,,,
Tea Center,18.5852691,73.8193095,cafe,,
Chocolate Lovers Cakes and Cafe,18.585231,73.8191351,,,
Delight Dhaba and Cafe,18.6424123,73.7371525,restaurant,,
Lucky Hotel And Restaurant,18.6407839,73.7378787,restaurant,,
BhavaniSupermarket,18.6401452,73.7366429,,,
Force Motors,18.6387017,73.7386653,,,
Gokul Hotel,18.6369785,73.739368,restaurant,,
Mahalaxmi Supermarket,18.5439549,73.7930281,,,
Kondhana Pure Veg Family Garden & Restaurants,18.4282755,73.7557963,restaurant,,
Chafa Cafe And Studio,18.533317,73.8970577,cafe,,
Sambhaji Bagve Paryavaran Jagruti Udyan,18.503586,73.8724918,,,
Bhairavnath Temple,18.5536118,73.7543244,place_of_worship,,
Hanuman Temple,18.5533993,73.7543221,place_of_worship,,
Shri 1008 Shantinath Ratntray Digamber Jain Mandir,18.5525714,73.7545509,place_of_worship,,
Pradnya Resturant,18.4923919,73.8542599,restaurant,,
Vishva Computers and Laptop Repairing Center,18.5923754,73.7847076,,,
Rangabhumi Hall,18.6196227,73.7494796,community_centre,,
Hotel Omkar Dining Hall,18.6208578,73.7465938,restaurant,,
HP Fuel,18.7343014,73.9432447,fuel,,
Asawari Garden and Club house,18.4579934,73.7846333,,,
Nanded City Eco Park,18.4547556,73.7849037,,,
Lapworld Technologies,18.5932822,73.7855414,,,
Sinhagad College cricket ground,18.4686576,73.8345016,,,
ONP Leela Hospital,18.5329215,73.8468085,hospital,,
Meera Hospital,18.5022882,73.8746894,hospital,,
Jupiter Hospital,18.5656598,73.7859859,hospital,,
Seth Ramdas Shah Memorial Hospital and Research Centre,18.5293628,73.8284091,hospital,,
Sukho Thai Spa,18.5377102,73.8291061,,,
om sai mitra mandal saisamrajya chowk saswad,18.3521915,74.023516,place_of_worship,,
International Girls Hostel,18.5569591,73.822172,,,
Bhagini Nivedita Bank - Sangvi Branch,18.5730017,73.8182483,bank,,
Ashwini Hospital,18.576745,73.7757678,hospital,,
श्रीराम वडापाव,18.5987622,73.7638272,fast_food,,
Head To Toes Salon,18.5611592,73.8051065,,,
The Chinese Wok,18.5873107,73.7801516,restaurant,,
Chat Bazar Chowpati - The Lake Side Cafe,18.4966146,73.7327146,cafe,,
Blossom Cosmetics,18.5880637,73.7841181,,,
Cafe Creamy Nuts,18.5878202,73.7840908,,,
Yaari's Coffee & Chinese,18.5880694,73.7841392,,,
Vatika,18.6337458,73.7859084,restaurant,,
NRS hospital,18.6007211,73.7751811,hospital,,
Rasoi Se,18.6561007,73.7694835,restaurant,,
Jai Ganesh Dosa Center,18.5270979,73.8270793,fast_food,,
Sasoon Sarvopchar Hospital Blood Bank,18.526057,73.8716975,blood_bank,,
Inlaks Budharani Hospital Blood Bank,18.5343451,73.887426,blood_bank,,
The New Century Medical & Education Foundation Trust Blood Bank & Aphaeresis Centre,18.564619,73.8010126,blood_bank,,
Aditya Birla Memorial Hospital Blood Bank,18.6256736,73.7748617,blood_bank,,
Indian Serological Institute Blood Bank,18.5061616,73.839983,blood_bank,,
Deenanath Mangeshkar Hospital Blood Bank,18.5020141,73.8323001,blood_bank,,
Padmashree Dr. D.Y. Patil (Vishweshwar) Blood Bank,18.6242477,73.8211727,blood_bank,,
Pimpari Serological Institute Blood Bank,18.6242458,73.8079447,blood_bank,,
Smt Kashibai Navale General Hospital Blood Bank,18.4562697,73.8207918,blood_bank,,
Bharati Vidyapeeth Medical Foundation Blood Bank,18.4594703,73.8562721,blood_bank,,
R.G Gholap Memorial Blood Bank,18.4872101,73.8569641,blood_bank,,
Garware Blood Bank - Talegaon Rural Hospital,18.7350789,73.6755489,blood_bank,,
Shri Bhairavnath Temple,18.3430799,73.9780484,place_of_worship,,
Poona Serological Institute Blood Bank,18.5173234,73.8645829,blood_bank,,
Armed Forces Blood Bank,18.5039398,73.8901779,blood_bank,,
Yezdi Jawa Showroom,18.5585734,73.7922541,,,
Jehangir Hospital Blood Bank,18.5303296,73.8766193,blood_bank,,
M/s. Vidyashree Charitable Trusts Om Blood Bank,18.5234401,73.8641996,blood_bank,,
Chattrapati Shahu Maharaj Pratisthan Blood Bank,18.4661131,73.8576829,blood_bank,,
Akshay Blood Bank,18.4990714,73.9412525,blood_bank,,
Noble Hospital Blood Bank,18.5050386,73.9269939,blood_bank,,
KEM Hospital Blood Bank,18.5200829,73.8666764,blood_bank,,
Sopanbaug Sansrutik Bhavan,18.349646,73.8052056,community_centre,,
Sinhagad Valley,18.3773169,73.7688583,,,
Vijaya Bank,18.3907212,73.9307249,bank,,
Sangameshwar Temple,18.3400568,74.0278429,place_of_worship,,
toppers tutorial,18.6129911,73.8191856,prep_school,,
Popeye Fitness,18.5645234,73.7848993,,,
New Sarovar,18.4935842,73.738525,bar,,
National Cafe,18.4603841,73.8239506,cafe,,
X Treme Hair Salon,18.4607112,73.8238092,,,
National Dairy,18.4604167,73.8240087,,,
Aksharwal Books And Stationery,18.4602951,73.8238448,,,
Canara Bank ATM,18.5285912,73.8752161,atm,,
Gurudawara Guru Nanak Darbar,18.7472189,73.8805072,place_of_worship,,
Reliance Petrolium,18.739552,73.8581854,fuel,,
DHL,18.7388145,73.8576493,post_office,,
Ford,18.738108,73.8574355,,,
KTM,18.6978716,73.8475604,,,
MRF,18.7367187,73.9502603,,,
PDCC,18.7353641,73.9221649,bank,,
Galaxy Cafe,18.7463336,73.8600669,cafe,,
Shwas Multispeciality Hospital,18.7463443,73.8601147,hospital,,
RBL bank,18.7463618,73.8600762,bank,,
Idea,18.746356,73.8600808,,,
Bridgestone,18.7487294,73.8602592,,,
Induslnd Bank,18.7502831,73.8608692,bank,,
Bharat Gas Sigma,18.7490525,73.860307,,,
Essar,18.7428538,73.8955701,fuel,,
Mahindra,18.7241761,73.8533709,,,
True Value,18.7219393,73.8519305,,,
Golden Cafe,18.6506279,73.8394886,cafe,,
Carnival Cinemas,18.6503442,73.8391433,cinema,,
Backpackers Hive,18.541047,73.8909657,,,
Janaseva Sahakari Bank Ltd.,18.5519864,73.8971899,atm,,
Western Union,18.5396889,73.8872657,money_transfer,,
Ashok Layland,18.6950834,73.8479894,,,
Dosti Hotel,18.6770577,73.8496493,restaurant,,
Roll Delight,18.6507943,73.839574,restaurant,,
360 Restobar,18.6502755,73.839884,restaurant,,
PaPa Jees,18.6502733,73.839863,restaurant,,
Jumbo King,18.6106899,73.7498375,restaurant,,
Paratha Hut,18.6110463,73.7497257,restaurant,,
Good Food Roll House,18.6113892,73.7496363,restaurant,,
Superman's Cafe,18.6123331,73.7492724,cafe,,
CNG,18.6307371,73.7428473,fuel,,
Bar Stock Exchange,18.5909321,73.7528542,bar,,
Publiq,18.5908936,73.7528298,bar,,
Barkhana,18.593841,73.7570414,bar,,
Civil_Court,18.5169321,73.8554432,metroStation,,
MG Motor,18.5992662,73.7538248,,,
Jaguar Ace Perkins,18.6028384,73.7538591,,,
Top 87,18.6419826,73.7544634,bar,,
CO2,18.4920389,73.7345942,bar,,
Thalasso,18.4935842,73.7330552,bar,,
90 Degree,18.4938928,73.7323944,bar,,
Wrong Turn,18.4967082,73.7329944,bar,,
New Saiba,18.4994465,73.7317651,bar,,
Smokey Beach,18.487746,73.7147124,bar,,
Mix,18.49795,73.7145217,bar,,
Nityanand Rehabilitation and Residential Mental Heal,18.4565508,73.8515434,hospital,,
Yashda Hospital,18.5168084,73.859535,hospital,,
Mohite Eye Hospital,18.5006535,73.936556,hospital,,
Joglekar Hospital,18.5327524,73.8336359,hospital,,
"Rakshak Hospital, Pune",18.5628712,73.9377429,hospital,,
Parmar Multi Speciality Hospital and Maternity Home,18.5600564,73.8072065,hospital,,
Chaitanya Centre For Psychological Help,18.4795175,73.8043727,hospital,,
"Kamal Nursing Home, Pune",18.4892153,73.8621201,clinic,,
Wadekar Nursing Home,18.4729307,73.8193627,clinic,,
Mothercare Hospital,18.4872463,73.8760145,hospital,,
Dristi Deep Eye Clinic,18.6278544,73.7829874,clinic,,
Ranna Nursing Home,18.6663632,73.7812182,clinic,,
Onkar Hospital,18.6468218,74.0607716,hospital,,
"Sahyadri Hospital, Bibvewadi",18.4781739,73.862105,hospital,,
Bhalerao ENT Hospital & Laser Centre,18.6495394,73.7777303,hospital,,
Bhagali Clinic and Nursing Home,18.4746632,73.8580583,clinic,,
Siddhi Health Care Center,18.5857676,73.818174,hospital,,
"Aditya Eye Clinic, Pune",18.5160339,73.8792372,clinic,,
Argade Infertility and Endoscopic Surgery and Icu Center,18.5017523,73.8102353,hospital,,
CGHS Dispensary No.2,18.5556244,73.8756169,clinic,,
Shree Balaji Eye Hospital,18.4910283,73.8581684,hospital,,
Nikhil Polyclinic,18.5611231,73.8938338,clinic,,
Chaitanya Stem Cell Center,18.5000189,73.8503981,hospital,,
Shree Shakti Hospital,18.5887256,73.8014048,hospital,,
"Welfare Medical Foundatios, Mohintara Hospital",18.503468,73.9292309,hospital,,
"Pawar Hospital, Pune",18.4658771,73.8601231,hospital,,
Hotel chul angan,18.4596992,73.8011789,restaurant,,
Galaxy Care Laparoscopy Institute Pvt. Ltd.,18.5110031,73.837105,hospital,,
Punarvasu Chikitsalaya,18.5284781,73.8423179,hospital,,
Ushakiran General Hospital,18.5019965,73.9348286,hospital,,
"Sangam Hospital, Pune",18.4757105,73.8578707,hospital,,
"Zenith Hospital, Pune",18.5025879,73.9294803,hospital,,
Umarji Hospital,18.5119352,73.857758,hospital,,
Latai Clinic,18.6733701,73.7345752,clinic,,
Amrut Hospital,18.6098278,73.8017106,hospital,,
Latkar Hospital,18.5609006,73.8132226,hospital,,
Lunkad Hospital,18.5840808,73.833248,hospital,,
Shashwat Hospital,18.4948349,73.8135271,hospital,,
Medipoint Hospital,18.5623861,73.933849,hospital,,
Indira Maternity Home,18.5122188,73.8762961,hospital,,
Dr Hinge's Dental Clinic,18.6178996,73.8494083,dentist,,
"Bhoir Hospital, Pune",18.6142278,73.7647042,hospital,,
"Mayur Hospital, Pune",18.6661878,73.7959667,hospital,,
Alatkar Hospital,18.5018572,73.9322779,hospital,,
Pimpri Chinchwad (Pcip) Institute Of Paediatrics,18.6185477,73.803735,hospital,,
Rode Hospital,18.6186748,73.8699487,hospital,,
Ranka Hospital,18.4950117,73.861886,hospital,,
"CGHS Polyclinic, Mukund Nagar",18.4945971,73.8599226,clinic,,
Dr. Ashok Parakh,18.4871465,73.8570687,doctors,,
Niramaya Hospital,18.6394848,73.7967941,hospital,,
Diwan Hospital,18.6579111,73.7762953,hospital,,
Bhide Hospital,18.5048666,73.8443399,hospital,,
"Grant Medical Foundation, Ruby Hall Clinic - Wanowarie - Pune",18.4848278,73.9048804,clinic,,
Poona Laser Center,18.5123701,73.8381752,hospital,,
CGHS Dispensary No.4,18.5189181,73.8599682,clinic,,
Om Netralaya Eye Clinic,18.5787163,73.8154797,clinic,,
Siddhant Maternity Home,18.4792694,73.8566422,hospital,,
Remedy Hospital,18.5005568,73.9365077,hospital,,
Shivarkar Hospital,18.3511753,74.0255946,hospital,,
Amit Hospital,18.5463494,73.8880362,hospital,,
"Kaushal Hospital, Pune",18.6186926,73.7992403,hospital,,
"Purandare Hospital, Pune",18.5022916,73.8586646,hospital,,
Pramodini Urology Foundation,18.5199125,73.8410217,hospital,,
Harsh Hospital,18.4802908,73.8662057,hospital,,
Avanti Nursing Home,18.6332605,73.806607,clinic,,
Dr. Kashyap Nursing Home,18.4705601,73.8643355,clinic,,
Shree Harneshwar Clinic,18.733558,73.6646846,clinic,,
Shraddha Hospital,18.5019482,73.9315805,hospital,,
Lifeline Speciality Hospital,18.5823761,73.9894465,clinic,,
Salunke Hospital,18.5585931,73.9273694,hospital,,
Moolanis Eye Care Centre,18.5057737,73.8783494,hospital,,
Gokhale Hospital,18.502172,73.857062,hospital,,
"Sushrut Hospital, Chinchwad",18.6283685,73.8129256,hospital,,
Wankhede Hospital,18.4724656,73.8888207,hospital,,
Pune Fertility Center,18.5287757,73.8479868,hospital,,
Jagtap Hospital,18.4774187,73.8237825,hospital,,
Health Plus Nursing Home,18.564719,73.8129873,clinic,,
Attharva Accident Hospital,18.7317589,73.6640784,hospital,,
Joshi Hospital,18.5171772,73.8332118,hospital,,
"Lifeline Hospital, Pune",18.5875463,73.8625391,hospital,,
Dr Patwardhan Hospital,18.4573434,73.8507776,hospital,,
Sainath Orthopaedic Hospital,18.6182834,73.8028754,hospital,,
Shri Samarth Hospital,18.5180616,73.865867,hospital,,
Mai Mangeshkar Hospital,18.4851843,73.7997318,hospital,,
Kamal Netra Rugnalaya,18.4949914,73.81219,hospital,,
Ashwini Hospital and Endoscopy Centre,18.6676197,73.7942453,hospital,,
Dr. Tekawade Eye Clinic,18.4953513,73.8583679,clinic,,
Kulkarni Hospital and Diagnostic Centre,18.4851967,73.8092832,hospital,,
Khares Eye Institute,18.5145168,73.8317379,hospital,,
Dr Chavans Fracture and Orthopaedic Center,18.4785979,73.8238536,hospital,,
"Suraj Hospital, Hadaspur",18.5052573,73.9541258,hospital,,
Gultekdi Nursing and Maternity Home,18.4926804,73.8685472,hospital,,
Ankur Nursing Home,18.6267259,73.7826857,clinic,,
Agarwal Maternity and General Hospital,18.5588804,73.931217,hospital,,
Swaminathan Clinic,18.6240291,73.8028304,clinic,,
Sant Dnyaneswar Medical Education Research Centre,18.5137805,73.8476971,hospital,,
"Tanmay Nursing Home, Pune",18.5050341,73.9012172,clinic,,
Kohakade Hospital,18.5628578,73.9320606,hospital,,
Patankar Nursing Home,18.5003686,73.8542886,clinic,,
Dr. Karve Childrens Hospital,18.5252254,73.8499763,hospital,,
Yashashree Maternity and Nursing Home,18.4886651,73.8502412,hospital,,
New Life Children Hospital,18.6146396,73.7856428,hospital,,
Yeshwant Eye Clinic and Hospital,18.4970609,73.8537818,clinic,,
Vinayak Netralaya - Pune,18.5105851,73.817981,hospital,,
Shaishav Clinic,18.5138215,73.8477098,clinic,,
Seva Hospital,18.5748353,73.8277468,hospital,,
Mams Sumatibhai Shah Ayurved Mahavidyalayas,18.5035837,73.9387286,hospital,,
Sainath Hospital,18.6545135,73.8484494,hospital,,
Nayan Tara Eye Clinic,18.5010261,73.8251773,clinic,,
"Surya Multispeciality Hospital - Chakan, Pune",18.7484989,73.8602592,hospital,,
Abane Hospital,18.4994516,73.9377093,hospital,,
"Hiremath Nursing Home, Pune",18.6259736,73.783772,clinic,,
Rahel Hospital,18.5152906,73.8754553,hospital,,
Dr Sonawane Hospital,18.6472922,74.0590444,hospital,,
Nachiket Hospital Pvt Ltd,18.5076864,73.831062,hospital,,
"Shivam Hospital, Pune",18.4904171,74.000239,hospital,,
Rote Clinic,18.5604194,73.8090387,clinic,,
Sai Shree Orthopaedic Super Speciality and Joint Replacement Centre,18.5601581,73.8052712,hospital,,
Disha Netralaya - Pune,18.6647203,73.7849696,hospital,,
Sunny Nursing Home,18.5121794,73.8102467,clinic,,
Shahade Hospital,18.4978682,73.8537562,hospital,,
Dada Laser Eye Institute,18.5109382,73.8799037,hospital,,
Jeevan Sadhana Clinic - Pune,18.5052192,73.8240199,clinic,,
Dr.Prakash Katariya Laser Cure,18.5223591,73.8441311,hospital,,
"Siddharth Hospital, Pune",18.4900578,73.8684641,hospital,,
Anjali Hospital,18.6200124,73.8010407,hospital,,
Dr.Purohit Nursing Home,18.490344,73.8443121,hospital,,
"Pooja Hospital, Pune",18.5891781,73.8190953,hospital,,
Sahyadri Hospital Hadapsar,18.5031602,73.9321491,hospital,,
Siddhi Hospital and Laproscopy Centre Pvt Ltd,18.464116,73.859008,hospital,,
Nande Hospital,18.5011902,73.9383772,hospital,,
PBMA's H V Desai Eye Hospital,18.4722952,73.9237216,hospital,,
"Phoenix Hospital, Pune",18.6047183,73.7761981,hospital,,
Asha Dental Clinic,18.4984863,73.8547043,dentist,,
Suraj Hospital,18.4814034,73.8724713,hospital,,
Patil Hospital General and Eye Hospital,18.6525408,73.7780609,hospital,,
Moraya Hospital,18.5821441,73.8283718,hospital,,
Burute Child Care Clinic,18.6230944,73.8015678,clinic,,
Desai Hospital,18.6337676,73.8493024,hospital,,
"Shri Sai Hospital, Pune",18.6723003,73.8920917,hospital,,
"Mohintara Hospital, Hadapsar",18.5008462,73.9305311,hospital,,
Pratap Memorial Hospital,18.7334507,73.6797895,hospital,,
Chinchanikar Hospital,18.4785438,73.8235485,hospital,,
Ameya Clinic,18.5037236,73.829328,clinic,,
Morya Clinic,18.6568489,73.7752157,clinic,,
"Chaitanya Hospital, Bhaghirathi Nagar",18.4778296,73.7977711,hospital,,
Dr Sarawat Memorial Hospital,18.4705427,73.8878018,hospital,,
"Sanjeevani Nursing Home, Pune",18.5009816,73.9410272,clinic,,
Kotbagi Hospital,18.5619808,73.8047278,hospital,,
Dr. Gogate's Eye Clinic,18.5327481,73.8743435,clinic,,
Matoshri Hospital,18.7375516,73.6391607,hospital,,
"Anand Hospital, Bhosari",18.621807,73.8514093,hospital,,
Chintamani Hospital,18.3514712,74.0271818,hospital,,
Pawna Hospital,18.7029494,73.6854187,hospital,,
Vinod Memorial Multispeciality Hospital,18.5732119,73.8774723,hospital,,
"Suman Nursing Home, Pune",18.5249488,73.843374,social_facility,,
Dhanashree Hospital,18.6591036,73.7978435,hospital,,
Medlife Multispeciality Hospital and Icu,18.6191718,73.7912714,hospital,,
Om Hospital,18.5292449,73.830716,hospital,,
Bagade Hospital For Women and Maternity Home,18.5964845,73.8300374,hospital,,
Bharatiya Sanskriti Darshan Trust,18.5819248,74.0024284,hospital,,
Ruby Ailcare Superspeciality Cardiac Care Centre,18.6214797,73.8208455,hospital,,
Nayanjyot Eye Clinic and Laser Centre(NEO EYE CLINIC),18.5179948,73.8353509,clinic,,
Komal Nursing Home,18.5687078,73.8802859,clinic,,
Pune Adventist Hospital,advantist hospital,18.491944,73.8710202,hospital,
Sharda Clinic,18.5012309,73.8663384,clinic,,
Mahajan Hospital,18.4840672,73.857003,hospital,,
Bhavdhan Medicare Centre,18.515372,73.7809637,clinic,,
Om Prasuti Graha,18.5470843,73.8885243,hospital,,
"Shreenath Hospital, Pune",18.5211129,73.906766,hospital,,
Subodh Hospital,18.5035234,73.8137605,hospital,,
"Pai Hospital, Pune",18.4689649,73.8572026,hospital,,
Chinmay Institute Of Paediatrics,18.5083289,73.8457009,hospital,,
Patil Hospital - Pune,18.4797674,73.8251685,hospital,,
Paras Polyclinic and General Hospital,18.6436414,73.7710556,hospital,,
Shree.J.Hospital,18.4653028,73.864194,hospital,,
Just In Time,18.6364044,73.7966244,,,
People,18.6362075,73.7963956,,,
Brand Factory,18.6363513,73.7961831,,,
Shoe Express,18.6362407,73.7961948,,,
Reebok,18.6360548,73.7960827,,,
Javed Habib,18.6359221,73.796078,,,
Rolls Mainia,18.6358424,73.7963396,fast_food,,
crossword,18.6357694,73.7963419,,,
RedTape,18.6358867,73.796071,,,
Suryaprabha Nursing Home,18.5073684,73.8083558,clinic,,
Bansal Hospital,18.6786782,73.7327309,hospital,,
Pataskar Hospital,18.6460596,73.8499998,hospital,,
Darekar Hospital,18.6413795,74.0502669,hospital,,
Paranjpe Eye Clinic and Eye Surgery Centre,18.5183547,73.8404001,hospital,,
Ushakiran Eye Hospital,18.6133992,73.7664382,hospital,,
Devadhar Nursing Home,18.6141414,73.800057,clinic,,
Namrata Clinic,18.5142815,73.8689294,clinic,,
Aai Maternity Hospital and Nursing Home,18.6175138,73.8492092,hospital,,
K. K. Hospital - Pune,18.5626283,73.938176,hospital,,
Kurtkoti Nursing Home,18.509945,73.7963207,clinic,,
Ace Hospital,18.504933,73.8303593,hospital,,
"Shrikhande Clinic, Pune",18.6530446,73.7748738,clinic,,
Jeewan Jyot Multispeciality Medical Care Center,18.5569451,73.9074788,hospital,,
Swastik Dental Care,18.621528,73.8507052,dentist,,
Pooja Hospital,18.5023551,73.9288205,hospital,,
Dr. Mainkar Hospital,18.3424837,74.0294194,hospital,,
Chandra Hospital,18.4522084,73.890656,hospital,,
Dalvi Hospital,18.3457705,74.0291901,hospital,,
Vaibhavi Hospital,18.4994249,73.9469039,hospital,,
"Ankur Hospital, Shivaji Nagar",18.6062334,73.7729748,hospital,,
Saidham Hospital,18.6195467,73.8433908,hospital,,
Sunita Nursing Home,18.4839133,73.9321163,clinic,,
Global Hospital & Research Institute,18.5013237,73.8410144,hospital,,
"Lokmanya Hospital, Pune",18.5089079,73.834105,hospital,,
Natasha Nursing Home,18.5995668,73.7942742,clinic,,
Sai Sneh Hospital and Diagnostic Centre Pvt Ltd,18.4465478,73.8597831,hospital,,
Pabalkar Nursing Home,18.5059721,73.8564974,clinic,,
"Kabre Orthopedic, Spine and Dental Centre",18.6490413,73.8076058,hospital,,
"Chavan hospital, Pune",18.6332402,73.8167819,hospital,,
Harsh Eye Clinic,18.6391277,73.7941736,clinic,,
Padam.Dr.D.Y.Patil Hospital and Research Centre,18.6240215,73.8212612,hospital,,
Lohade Hospital,18.6405777,73.7945558,hospital,,
"Surya Netralaya, Pune",18.5600145,73.8064085,clinic,,
"Lodha Hospital, Pune",18.4833651,73.8004071,hospital,,
Usha Nursing Home,18.5074956,73.8788523,clinic,,
"Adarsh Hospital, Pune",18.4541274,73.8881166,hospital,,
Alhat Nursing Home,18.6216793,73.8504235,clinic,,
Marathe Nursing Home,18.5047181,73.8203453,clinic,,
Shriniwas Hospital,18.6672779,73.7846866,hospital,,
Neo Clinic,18.5240377,73.8414207,clinic,,
Dhanwantari Hospital,18.5194471,73.8658999,hospital,,
Pungliya Hospital,18.5226796,73.8508487,hospital,,
B.J.Medical College and Sassoon Hospital,18.526235,73.871161,hospital,,
Sanket Eye Clinic,18.7220718,73.6837833,clinic,,
Varma Ortho - Surgical Centre,18.6570509,73.769787,hospital,,
S P Deshpande Eye Clinic,18.5157802,73.8471479,clinic,,
Karne Hospital Pvt Ltd,18.4954696,73.8583709,hospital,,
Vibhute Hospital,18.5040492,73.8518391,hospital,,
Undre Hospital,Undre Hospital Wagholi,18.5815165,73.9856009,hospital,clinic
Mankikar Hospital For Children and Lab,18.6186189,73.8495646,hospital,,
Maval Hospital,18.741703,73.6338449,hospital,,
Unique Childrens Hospital,18.6388704,73.7943419,hospital,,
Yash Hospital - V.K. Medical Foundation,18.5103392,73.9380687,hospital,,
"Chetana Hospital, Pune",18.6596112,73.7970825,hospital,,
Kulkarni Endo Surgery Institute and Reconstructive Urology Centre,18.5097841,73.8029893,hospital,,
Om Shree Swami Samarth Hospital,18.6345339,73.7791827,hospital,,
Vinnayak Hospital,18.4854879,73.8717458,hospital,,
Dr Makan Surgical Maternity and Accident Hospital,18.5756743,73.8196734,hospital,,
"Global Multi Speciality Hospital, Pune",18.6026821,73.7772542,hospital,,
Shah Hospital,18.5486475,73.8893055,hospital,,
Navjeewan Hospital,18.4984609,73.9543189,hospital,,
Prathmesh Hospital,18.5518547,73.9368054,hospital,,
Kavde Nursing Home,18.4625831,73.7732537,clinic,,
Pune City Eye Hospital,18.5298629,73.8760869,hospital,,
Talesara Hospital,18.5498719,73.8887711,hospital,,
Borse Nursing Home,18.5093803,73.7901476,hospital,,
"Shree Krupa Hospital, Pune",18.6243518,73.7864814,hospital,,
Dr. Bumb Nursing Home,18.5577324,73.9089614,clinic,,
Prathamesh Hospital,18.5735081,73.8239434,hospital,,
Deodhar Eye Hospital,18.5114494,73.836472,hospital,,
"Om Hospital, Bavdhan",18.5164841,73.7818475,hospital,,
Shri Sai Clinic,18.5864474,73.8210222,clinic,,
Dr Meenu Agarwal Clinic,18.5139534,73.8781965,clinic,,
Sai Seva Hospital,18.5067097,73.8798045,clinic,,
Godbole Hospital,18.5112078,73.8513154,hospital,,
Sanjeevani Hospital,18.4626294,73.7748331,hospital,,
Kataria Hospital,18.545411,73.8855249,hospital,,
"Ashwini Hospital, Pune",18.6436421,73.7732088,hospital,,
Sevadham Hopital,18.7327978,73.6712413,hospital,,
Dr.Pawar Eye Hospital,18.5092716,73.8449264,hospital,,
National Institute Of Ophthalmology,18.5596864,73.8148253,hospital,,
Nm Wadia Institute Of Cardiology,18.5307444,73.8771894,hospital,,
"Indira Nursing Home, Pune",18.4998338,73.8134164,clinic,,
Bhakti Hospital,18.5851041,73.819735,hospital,,
"Pritam Hospital, Pune",18.617531,73.8500802,hospital,,
Sane Guruji Arogya Kendra,18.503632,73.9381224,hospital,,
Wagh Eye Clinic,18.5252979,73.8437355,clinic,,
Bhide Clinic,18.5208179,73.8458765,clinic,,
Prabhudesai Eye Clinic,18.5009346,73.8202762,clinic,,
Badade Hospital,18.6573737,73.7682514,hospital,,
Disha Diagnostic Center,18.5608992,73.8112011,clinic,,
Bhandari Maternity and Nursing Home,18.4777164,73.8234164,hospital,,
"Samarth Hospital, Pune",18.5195234,73.862059,hospital,,
Amai Charitable Trust Institute Of Urology,18.5550536,73.8162401,hospital,,
Z Y - Vision,18.5247371,73.8408494,hospital,,
Dr. Balani's Speciality Dental Clinic,18.525598,73.8763618,clinic,,
"Shreeyash Hospital, Pune",18.5155666,73.8418673,hospital,,
Dr. Todkar Hospital,18.5229518,73.8639473,hospital,,
Khenat Hospital and Maternity Home,18.4891281,73.8138248,hospital,,
Manoj Clinic / Gore Hospital,18.5117788,73.8487867,hospital,,
"Om Hospital, Pune",18.6167297,73.8737755,hospital,,
Pharande Eye Hospital,18.4777316,73.8239729,hospital,,
Vishwaniranjan Eye Hospital,18.5113846,73.8458276,hospital,,
Dhanvantary Hospital,18.5728934,73.8249265,hospital,,
Shree Nursing and Maternity Home,18.4845772,73.8159759,hospital,,
"Adarsh Nursing Home, Pune",18.5515102,73.8974829,clinic,,
Burute Hospital,18.6188706,73.8497047,hospital,,
"Ram Krishna Hospital, Pune",18.5092455,73.8483354,hospital,,
Shatayu Hospital,18.4664871,73.857691,hospital,,
Yashraj Nursing Home,18.4481018,73.870931,clinic,,
Rao Nursing Home,18.4846599,73.8586137,clinic,,
"Vinayak Hospital, Warje",18.4858542,73.7968263,hospital,,
Sanjeevan Maternity and Surgical Hospital,18.5593966,73.8025528,hospital,,
Serene Hospital Pvt Ltd,18.5697941,73.8818973,hospital,,
Biniwale Clinic,18.5183573,73.8344885,clinic,,
Rural Hospital,18.7330277,73.6759593,hospital,,
CGHS Dispensary No.3,CHGS hospital,18.504568,73.8744199,clinic,hospital
Polaris Health Care,18.5994905,73.7636078,hospital,,
Deshpande Hospital,18.5049909,73.9022358,hospital,,
Vora Multispeciality Dental Clinic and Implant Centre,18.48046,73.8681127,dentist,,
Apte Eye Clinic and Laser Center,18.504769,73.8251156,clinic,,
Ameya Netralaya (Eye Hospital),18.6598933,73.7774138,hospital,,
"Chaitanya Hospital, Poona",18.6456161,74.0625782,hospital,,
Bindu Speciality Clinic,18.6351794,73.7924007,clinic,,
Centre For Laproscopy Surgery,18.5207937,73.8452496,hospital,,
